{"countries": [{"lat": 47.9953, "lng": 7.86011, "zoom": 13, "name": "Frelo Freiburg", "hotline": "00493069205046", "domain": "df", "language": "de", "email": "kundenservice@frelo-freiburg.de", "timezone": "Europe/Berlin", "currency": "EUR", "country_calling_code": "+49", "system_operator_address": "TIER Mobility SE - Erich-Zeigner Allee 69-73 - D-04229 Leipzig", "country": "DE", "country_name": "Germany", "terms": "https://www.frelo-freiburg.de/xx/terms/#202211", "policy": "https://www.frelo-freiburg.de/xx/privacy/", "website": "https://www.frelo-freiburg.de/de/", "show_bike_types": false, "show_bike_type_groups": false, "show_free_racks": false, "booked_bikes": 0, "set_point_bikes": 820, "available_bikes": 676, "capped_available_bikes": false, "no_registration": false, "pricing": "https://www.frelo-freiburg.de/xx/prices/", "vat": "19", "faq_url": "https://www.frelo-freiburg.de/xx/faq/", "store_uri_android": "https://play.google.com/store/apps/details?id=de.nextbike", "store_uri_ios": "https://apps.apple.com/app/id504288371", "cities": [{"uid": 619, "lat": 47.9958, "lng": 7.84453, "zoom": 12, "maps_icon": "", "alias": "freiburg", "break": false, "name": "Freiburg", "num_places": 116, "refresh_rate": "10120", "bounds": {"south_west": {"lat": 47.9657, "lng": 7.6957}, "north_east": {"lat": 48.0647, "lng": 7.9154}}, "booked_bikes": 0, "set_point_bikes": 820, "available_bikes": 676, "return_to_official_only": true, "bike_types": {"71": 314, "150": 177, "181": 17, "196": 196, "225": 1}, "website": "https://www.frelo-freiburg.de/de/", "places": [{"uid": 15430389, "lat": 48.01164, "lng": 7.82282, "bike": false, "name": "Westbad", "address": "Ensisheimer Stra\u00dfe", "spot": true, "number": 3675, "booked_bikes": 0, "bikes": 19, "bikes_available_to_rent": 19, "bike_racks": 5, "free_racks": 0, "special_racks": 0, "free_special_racks": 0, "maintenance": false, "terminal_type": "sign", "bike_list": [{"number": "32976", "bike_type": 150, "lock_types": ["frame_lock"], "active": true, "state": "ok", "electric_lock": true, "boardcomputer": 7551125315, "pedelec_battery": null, "battery_pack": null}, {"number": "32936", "bike_type": 71, "lock_types": ["frame_lock"], "active": true, "state": "ok", "electric_lock": true, "boardcomputer": 7551132294, "pedelec_battery": null, "battery_pack": null}, {"number": "32887", "bike_type": 150, "lock_types": ["frame_lock"], "active": true, "state": "ok", "electric_lock": true, "boardcomputer": 7551123978, "pedelec_battery": null, "battery_pack": null}, {"number": "32852", "bike_type": 196, "lock_types": ["frame_lock"], "active": true, "state": "ok", "electric_lock": true, "boardcomputer": 7551011864, "pedelec_battery": null, "battery_pack": null}, {"number": "32760", "bike_type": 150, "lock_types": ["frame_lock"], "active": true, "state": "ok", "electric_lock": true, "boardcomputer": 7551130770, "pedelec_battery": null, "battery_pack": null}, {"number": "32746", "bike_type": 150, "lock_types": ["frame_lock"], "active": true, "state": "ok", "electric_lock": true, "boardcomputer": 7551164167, "pedelec_battery": null, "battery_pack": null}, {"number": "32723", "bike_type": 71, "lock_types": ["frame_lock"], "active": true, "state": "ok", "electric_lock": true, "boardcomputer": 7551014924, "pedelec_battery": null, "battery_pack": null}, {"number": "32722", "bike_type": 71, "lock_types": ["frame_lock"], "active": true, "state": "ok", "electric_lock": true, "boardcomputer": 7551171030, "pedelec_battery": null, "battery_pack": null}, {"number": "32716", "bike_type": 71, "lock_types": ["frame_lock"], "active": true, "state": "ok", "electric_lock": true, "boardcomputer": 7551014926, "pedelec_battery": null, "battery_pack": null}, {"number": "32696", "bike_type": 150, "lock_types": ["frame_lock"], "active": true, "state": "ok", "electric_lock": true, "boardcomputer": 7551131035, "pedelec_battery": null, "battery_pack": null}, {"number": "32668", "bike_type": 150, "lock_types": ["frame_lock"], "active": true, "state": "ok", "electric_lock": true, "boardcomputer": 7551015474, "pedelec_battery": null, "battery_pack": null}, {"number": "32620", "bike_type": 71, "lock_types": ["frame_lock"], "active": true, "state": "ok", "electric_lock": true, "boardcomputer": 7551126758, "pedelec_battery": null, "battery_pack": null}, {"number": "32587", "bike_type": 150, "lock_types": ["frame_lock"], "active": true, "state": "ok", "electric_lock": true, "boardcomputer": 7551021870, "pedelec_battery": null, "battery_pack": null}, {"number": "32537", "bike_type": 150, "lock_types": ["frame_lock"], "active": true, "state": "ok", "electric_lock": true, "boardcomputer": 7551092299, "pedelec_battery": null, "battery_pack": null}, {"number": "32536", "bike_type": 71, "lock_types": ["frame_lock"], "active": true, "state": "ok", "electric_lock": true, "boardcomputer": 7551124652, "pedelec_battery": null, "battery_pack": null}, {"number": "33485", "bike_type": 150, "lock_types": ["frame_lock"], "active": true, "state": "ok", "electric_lock": true, "boardcomputer": 7551150427, "pedelec_battery": null, "battery_pack": null}, {"number": "35641", "bike_type": 71, "lock_types": ["frame_lock"], "active": true, "state": "ok", "electric_lock": true, "boardcomputer": 7551150148, "pedelec_battery": null, "battery_pack": null}, {"number": "33463", "bike_type": 71, "lock_types": ["frame_lock"], "active": true, "state": "ok", "electric_lock": true, "boardcomputer": 7551134038, "pedelec_battery": null, "battery_pack": null}, {"number": "33430", "bike_type": 150, "lock_types": ["frame_lock"], "active": true, "state": "ok", "electric_lock": true, "boardcomputer": 7551131787, "pedelec_battery": null, "battery_pack": null}], "bike_numbers": ["32976", "32936", "32887", "32852", "32760", "32746", "32723", "32722", "32716", "32696", "32668", "32620", "32587", "32537", "32536", "33485", "35641", "33463", "33430"], "bike_types": {"71": 8, "150": 10, "196": 1}, "place_type": "0", "rack_locks": false}, {"uid": 15430457, "lat": 48.012852, "lng": 7.8324, "bike": false, "name": "Bahnhof Messe/Universit\u00e4t", "address": "Elefantenweg", "spot": true, "number": 3676, "booked_bikes": 0, "bikes": 15, "bikes_available_to_rent": 15, "bike_racks": 6, "free_racks": 0, "special_racks": 0, "free_special_racks": 0, "maintenance": false, "terminal_type": "sign", "bike_list": [{"number": "32945", "bike_type": 71, "lock_types": ["frame_lock"], "active": true, "state": "ok", "electric_lock": true, "boardcomputer": 7551150137, "pedelec_battery": null, "battery_pack": null}, {"number": "32931", "bike_type": 71, "lock_types": ["frame_lock"], "active": true, "state": "ok", "electric_lock": true, "boardcomputer": 7551125792, "pedelec_battery": null, "battery_pack": null}, {"number": "32885", "bike_type": 71, "lock_types": ["frame_lock"], "active": true, "state": "ok", "electric_lock": true, "boardcomputer": 7551149939, "pedelec_battery": null, "battery_pack": null}, {"number": "32846", "bike_type": 150, "lock_types": ["frame_lock"], "active": true, "state": "ok", "electric_lock": true, "boardcomputer": 7551160692, "pedelec_battery": null, "battery_pack": null}, {"number": "32783", "bike_type": 196, "lock_types": ["frame_lock"], "active": true, "state": "ok", "electric_lock": true, "boardcomputer": 7551115799, "pedelec_battery": null, "battery_pack": null}, {"number": "32691", "bike_type": 71, "lock_types": ["frame_lock"], "active": true, "state": "ok", "electric_lock": true, "boardcomputer": 7551124086, "pedelec_battery": null, "battery_pack": null}, {"number": "32632", "bike_type": 71, "lock_types": ["frame_lock"], "active": true, "state": "ok", "electric_lock": true, "boardcomputer": 7551151263, "pedelec_battery": null, "battery_pack": null}, {"number": "32581", "bike_type": 196, "lock_types": ["frame_lock"], "active": true, "state": "ok", "electric_lock": true, "boardcomputer": 7551164158, "pedelec_battery": null, "battery_pack": null}, {"number": "32563", "bike_type": 71, "lock_types": ["frame_lock"], "active": true, "state": "ok", "electric_lock": true, "boardcomputer": 7551150130, "pedelec_battery": null, "battery_pack": null}, {"number": "33908", "bike_type": 150, "lock_types": ["frame_lock"], "active": true, "state": "ok", "electric_lock": true, "boardcomputer": 7551134472, "pedelec_battery": null, "battery_pack": null}, {"number": "35653", "bike_type": 196, "lock_types": ["frame_lock"], "active": true, "state": "ok", "electric_lock": true, "boardcomputer": 7551159032, "pedelec_battery": null, "battery_pack": null}, {"number": "35665", "bike_type": 196, "lock_types": ["frame_lock"], "active": true, "state": "ok", "electric_lock": true, "boardcomputer": 7551146956, "pedelec_battery": null, "battery_pack": null}, {"number": "35578", "bike_type": 71, "lock_types": ["frame_lock"], "active": true, "state": "ok", "electric_lock": true, "boardcomputer": 7551120243, "pedelec_battery": null, "battery_pack": null}, {"number": "35561", "bike_type": 71, "lock_types": ["frame_lock"], "active": true, "state": "ok", "electric_lock": true, "boardcomputer": 7551122700, "pedelec_battery": null, "battery_pack": null}, {"number": "33449", "bike_type": 71, "lock_types": ["frame_lock"], "active": true, "state": "ok", "electric_lock": true, "boardcomputer": 7551124412, "pedelec_battery": null, "battery_pack": null}], "bike_numbers": ["32945", "32931", "32885", "32846", "32783", "32691", "32632", "32581", "32563", "33908", "35653", "35665", "35578", "35561", "33449"], "bike_types": {"71": 9, "150": 2, "196": 4}, "place_type": "0", "rack_locks": false}, {"uid": 15430610, "lat": 48.00751, "lng": 7.8284, "bike": false, "name": "Berliner Allee", "address": "Breisacher Str. 153", "spot": true, "number": 3677, "booked_bikes": 0, "bikes": 25, "bikes_available_to_rent": 25, "bike_racks": 8, "free_racks": 0, "special_racks": 0, "free_special_racks": 0, "maintenance": false, "terminal_type": "sign", "bike_list": [{"number": "32892", "bike_type": 150, "lock_types": ["frame_lock"], "active": true, "state": "ok", "electric_lock": true, "boardcomputer": 7551150428, "pedelec_battery": null, "battery_pack": null}, {"number": "32870", "bike_type": 150, "lock_types": ["frame_lock"], "active": true, "state": "ok", "electric_lock": true, "boardcomputer": 7551092599, "pedelec_battery": null, "battery_pack": null}, {"number": "32863", "bike_type": 71, "lock_types": ["frame_lock"], "active": true, "state": "ok", "electric_lock": true, "boardcomputer": 7551162952, "pedelec_battery": null, "battery_pack": null}, {"number": "32801", "bike_type": 71, "lock_types": ["frame_lock"], "active": true, "state": "ok", "electric_lock": true, "boardcomputer": 7551123551, "pedelec_battery": null, "battery_pack": null}, {"number": "32743", "bike_type": 71, "lock_types": ["frame_lock"], "active": true, "state": "ok", "electric_lock": true, "boardcomputer": 7551021884, "pedelec_battery": null, "battery_pack": null}, {"number": "32637", "bike_type": 196, "lock_types": ["frame_lock"], "active": true, "state": "ok", "electric_lock": true, "boardcomputer": 7551159035, "pedelec_battery": null, "battery_pack": null}, {"number": "32624", "bike_type": 150, "lock_types": ["frame_lock"], "active": true, "state": "ok", "electric_lock": true, "boardcomputer": 7551150129, "pedelec_battery": null, "battery_pack": null}, {"number": "32592", "bike_type": 150, "lock_types": ["frame_lock"], "active": true, "state": "ok", "electric_lock": true, "boardcomputer": 7551151515, "pedelec_battery": null, "battery_pack": null}, {"number": "32573", "bike_type": 196, "lock_types": ["frame_lock"], "active": true, "state": "ok", "electric_lock": true, "boardcomputer": 7551091944, "pedelec_battery": null, "battery_pack": null}, {"number": "32567", "bike_type": 71, "lock_types": ["frame_lock"], "active": true, "state": "ok", "electric_lock": true, "boardcomputer": 7551132829, "pedelec_battery": null, "battery_pack": null}, {"number": "32534", "bike_type": 150, "lock_types": ["frame_lock"], "active": true, "state": "ok", "electric_lock": true, "boardcomputer": 7551092601, "pedelec_battery": null, "battery_pack": null}, {"number": "32525", "bike_type": 196, "lock_types": ["frame_lock"], "active": true, "state": "ok", "electric_lock": true, "boardcomputer": 7551170363, "pedelec_battery": null, "battery_pack": null}, {"number": "33927", "bike_type": 196, "lock_types": ["frame_lock"], "active": true, "state": "ok", "electric_lock": true, "boardcomputer": 7551154007, "pedelec_battery": null, "battery_pack": null}, {"number": "33916", "bike_type": 150, "lock_types": ["frame_lock"], "active": true, "state": "ok", "electric_lock": true, "boardcomputer": 7551160630, "pedelec_battery": null, "battery_pack": null}, {"number": "325016", "bike_type": 181, "lock_types": ["frame_lock"], "active": true, "state": "ok", "electric_lock": true, "boardcomputer": 7551128446, "pedelec_battery": 32, "battery_pack": {"percentage": 32}}, {"number": "35639", "bike_type": 150, "lock_types": ["frame_lock"], "active": true, "state": "ok", "electric_lock": true, "boardcomputer": 7551089618, "pedelec_battery": null, "battery_pack": null}, {"number": "35664", "bike_type": 196, "lock_types": ["frame_lock"], "active": true, "state": "ok", "electric_lock": true, "boardcomputer": 7551159701, "pedelec_battery": null, "battery_pack": null}, {"number": "35590", "bike_type": 71, "lock_types": ["frame_lock"], "active": true, "state": "ok", "electric_lock": true, "boardcomputer": 7551122163, "pedelec_battery": null, "battery_pack": null}, {"number": "35576", "bike_type": 71, "lock_types": ["frame_lock"], "active": true, "state": "ok", "electric_lock": true, "boardcomputer": 7551122197, "pedelec_battery": null, "battery_pack": null}, {"number": "35564", "bike_type": 71, "lock_types": ["frame_lock"], "active": true, "state": "ok", "electric_lock": true, "boardcomputer": 7551121072, "pedelec_battery": null, "battery_pack": null}, {"number": "33469", "bike_type": 71, "lock_types": ["frame_lock"], "active": true, "state": "ok", "electric_lock": true, "boardcomputer": 7551126209, "pedelec_battery": null, "battery_pack": null}, {"number": "33445", "bike_type": 71, "lock_types": ["frame_lock"], "active": true, "state": "ok", "electric_lock": true, "boardcomputer": 7551131728, "pedelec_battery": null, "battery_pack": null}, {"number": "325058", "bike_type": 196, "lock_types": ["frame_lock"], "active": true, "state": "ok", "electric_lock": true, "boardcomputer": 7551156476, "pedelec_battery": null, "battery_pack": null}, {"number": "325043", "bike_type": 150, "lock_types": ["frame_lock"], "active": true, "state": "ok", "electric_lock": true, "boardcomputer": 7551167620, "pedelec_battery": null, "battery_pack": null}, {"number": "325023", "bike_type": 196, "lock_types": ["frame_lock"], "active": true, "state": "ok", "electric_lock": true, "boardcomputer": 7551153571, "pedelec_battery": null, "battery_pack": null}], "bike_numbers": ["32892", "32870", "32863", "32801", "32743", "32637", "32624", "32592", "32573", "32567", "32534", "32525", "33927", "33916", "325016", "35639", "35664", "35590", "35576", "35564", "33469", "33445", "325058", "325043", "325023"], "bike_types": {"71": 9, "150": 8, "181": 1, "196": 7}, "place_type": "0", "rack_locks": false}, {"uid": 15430653, "lat": 48.006753, "lng": 7.821305, "bike": false, "name": "StuSie", "address": "Lehener Stra\u00dfe", "spot": true, "number": 3678, "booked_bikes": 0, "bikes": 10, "bikes_available_to_rent": 10, "bike_racks": 6, "free_racks": 0, "special_racks": 0, "free_special_racks": 0, "maintenance": true, "terminal_type": "sign", "bike_list": [{"number": "32995", "bike_type": 71, "lock_types": ["frame_lock"], "active": true, "state": "ok", "electric_lock": true, "boardcomputer": 7551151510, "pedelec_battery": null, "battery_pack": null}, {"number": "32991", "bike_type": 196, "lock_types": ["frame_lock"], "active": true, "state": "ok", "electric_lock": true, "boardcomputer": 7551171595, "pedelec_battery": null, "battery_pack": null}, {"number": "32891", "bike_type": 71, "lock_types": ["frame_lock"], "active": true, "state": "ok", "electric_lock": true, "boardcomputer": 7551130771, "pedelec_battery": null, "battery_pack": null}, {"number": "32883", "bike_type": 71, "lock_types": ["frame_lock"], "active": true, "state": "ok", "electric_lock": true, "boardcomputer": 7551124943, "pedelec_battery": null, "battery_pack": null}, {"number": "32678", "bike_type": 71, "lock_types": ["frame_lock"], "active": true, "state": "ok", "electric_lock": true, "boardcomputer": 7551151518, "pedelec_battery": null, "battery_pack": null}, {"number": "32557", "bike_type": 196, "lock_types": ["frame_lock"], "active": true, "state": "ok", "electric_lock": true, "boardcomputer": 7551162930, "pedelec_battery": null, "battery_pack": null}, {"number": "32532", "bike_type": 150, "lock_types": ["frame_lock"], "active": true, "state": "ok", "electric_lock": true, "boardcomputer": 7551159699, "pedelec_battery": null, "battery_pack": null}, {"number": "32505", "bike_type": 71, "lock_types": ["frame_lock"], "active": true, "state": "ok", "electric_lock": true, "boardcomputer": 7551125369, "pedelec_battery": null, "battery_pack": null}, {"number": "325015", "bike_type": 181, "lock_types": ["frame_lock"], "active": true, "state": "ok", "electric_lock": true, "boardcomputer": 7551063741, "pedelec_battery": 98, "battery_pack": {"percentage": 98}}, {"number": "35596", "bike_type": 71, "lock_types": ["frame_lock"], "active": true, "state": "ok", "electric_lock": true, "boardcomputer": 7551121857, "pedelec_battery": null, "battery_pack": null}], "bike_numbers": ["32995", "32991", "32891", "32883", "32678", "32557", "32532", "32505", "325015", "35596"], "bike_types": {"71": 6, "150": 1, "181": 1, "196": 2}, "place_type": "0", "rack_locks": false}, {"uid": 15430691, "lat": 48.02815, "lng": 7.80912, "bike": false, "name": "Moosweiher", "address": "Els\u00e4sserstra\u00dfe", "spot": true, "number": 3679, "booked_bikes": 0, "bikes": 8, "bikes_available_to_rent": 8, "bike_racks": 6, "free_racks": 0, "special_racks": 0, "free_special_racks": 0, "maintenance": false, "terminal_type": "sign", "bike_list": [{"number": "32930", "bike_type": 71, "lock_types": ["frame_lock"], "active": true, "state": "ok", "electric_lock": true, "boardcomputer": 7551025472, "pedelec_battery": null, "battery_pack": null}, {"number": "32918", "bike_type": 71, "lock_types": ["frame_lock"], "active": true, "state": "ok", "electric_lock": true, "boardcomputer": 7551154739, "pedelec_battery": null, "battery_pack": null}, {"number": "32916", "bike_type": 150, "lock_types": ["frame_lock"], "active": true, "state": "ok", "electric_lock": true, "boardcomputer": 7551153994, "pedelec_battery": null, "battery_pack": null}, {"number": "32609", "bike_type": 196, "lock_types": ["frame_lock"], "active": true, "state": "ok", "electric_lock": true, "boardcomputer": 7551159688, "pedelec_battery": null, "battery_pack": null}, {"number": "35649", "bike_type": 71, "lock_types": ["frame_lock"], "active": true, "state": "ok", "electric_lock": true, "boardcomputer": 7551128906, "pedelec_battery": null, "battery_pack": null}, {"number": "35645", "bike_type": 150, "lock_types": ["frame_lock"], "active": true, "state": "ok", "electric_lock": true, "boardcomputer": 7551089463, "pedelec_battery": null, "battery_pack": null}, {"number": "33451", "bike_type": 71, "lock_types": ["frame_lock"], "active": true, "state": "ok", "electric_lock": true, "boardcomputer": 7551131772, "pedelec_battery": null, "battery_pack": null}, {"number": "325055", "bike_type": 196, "lock_types": ["frame_lock"], "active": true, "state": "ok", "electric_lock": true, "boardcomputer": 7551153903, "pedelec_battery": null, "battery_pack": null}], "bike_numbers": ["32930", "32918", "32916", "32609", "35649", "35645", "33451", "325055"], "bike_types": {"71": 4, "150": 2, "196": 2}, "place_type": "0", "rack_locks": false}, {"uid": 15430728, "lat": 48.013762, "lng": 7.80746, "bike": false, "name": "Paduaallee", "address": "Paduaallee", "spot": true, "number": 3680, "booked_bikes": 0, "bikes": 5, "bikes_available_to_rent": 5, "bike_racks": 8, "free_racks": 3, "special_racks": 0, "free_special_racks": 0, "maintenance": false, "terminal_type": "sign", "bike_list": [{"number": "32909", "bike_type": 71, "lock_types": ["frame_lock"], "active": true, "state": "ok", "electric_lock": true, "boardcomputer": 7551124647, "pedelec_battery": null, "battery_pack": null}, {"number": "32816", "bike_type": 71, "lock_types": ["frame_lock"], "active": true, "state": "ok", "electric_lock": true, "boardcomputer": 7551138154, "pedelec_battery": null, "battery_pack": null}, {"number": "32693", "bike_type": 71, "lock_types": ["frame_lock"], "active": true, "state": "ok", "electric_lock": true, "boardcomputer": 7551135763, "pedelec_battery": null, "battery_pack": null}, {"number": "325057", "bike_type": 196, "lock_types": ["frame_lock"], "active": true, "state": "ok", "electric_lock": true, "boardcomputer": 7551159002, "pedelec_battery": null, "battery_pack": null}, {"number": "325050", "bike_type": 196, "lock_types": ["frame_lock"], "active": true, "state": "ok", "electric_lock": true, "boardcomputer": 7551153911, "pedelec_battery": null, "battery_pack": null}], "bike_numbers": ["32909", "32816", "32693", "325057", "325050"], "bike_types": {"71": 3, "196": 2}, "place_type": "0", "rack_locks": false}, {"uid": 15430769, "lat": 48.008416, "lng": 7.781755, "bike": false, "name": "Mundenhof", "address": "Mundenhofer Stra\u00dfe", "spot": true, "number": 3681, "booked_bikes": 0, "bikes": 2, "bikes_available_to_rent": 2, "bike_racks": 5, "free_racks": 3, "special_racks": 0, "free_special_racks": 0, "maintenance": false, "terminal_type": "sign", "bike_list": [{"number": "32901", "bike_type": 71, "lock_types": ["frame_lock"], "active": true, "state": "ok", "electric_lock": true, "boardcomputer": 7551160689, "pedelec_battery": null, "battery_pack": null}, {"number": "32898", "bike_type": 71, "lock_types": ["frame_lock"], "active": true, "state": "ok", "electric_lock": true, "boardcomputer": 7551123721, "pedelec_battery": null, "battery_pack": null}], "bike_numbers": ["32901", "32898"], "bike_types": {"71": 2}, "place_type": "0", "rack_locks": false}, {"uid": 15430898, "lat": 47.98988, "lng": 7.82326, "bike": false, "name": "Haslach Bad", "address": "Carl-Kistner-Stra\u00dfe 67", "spot": true, "number": 3682, "booked_bikes": 0, "bikes": 3, "bikes_available_to_rent": 3, "bike_racks": 10, "free_racks": 7, "special_racks": 0, "free_special_racks": 0, "maintenance": false, "terminal_type": "sign", "bike_list": [{"number": "32944", "bike_type": 71, "lock_types": ["frame_lock"], "active": true, "state": "ok", "electric_lock": true, "boardcomputer": 7551124723, "pedelec_battery": null, "battery_pack": null}, {"number": "32860", "bike_type": 71, "lock_types": ["frame_lock"], "active": true, "state": "ok", "electric_lock": true, "boardcomputer": 7551135126, "pedelec_battery": null, "battery_pack": null}, {"number": "32701", "bike_type": 71, "lock_types": ["frame_lock"], "active": true, "state": "ok", "electric_lock": true, "boardcomputer": 7551135765, "pedelec_battery": null, "battery_pack": null}], "bike_numbers": ["32944", "32860", "32701"], "bike_types": {"71": 3}, "place_type": "0", "rack_locks": false}, {"uid": 15430921, "lat": 47.991031, "lng": 7.815472, "bike": false, "name": "Dorfbrunnen (FreloPlus)", "address": "Uffhauser Stra\u00dfe 1", "spot": true, "number": 3683, "booked_bikes": 0, "bikes": 7, "bikes_available_to_rent": 7, "bike_racks": 5, "free_racks": 0, "special_racks": 0, "free_special_racks": 0, "maintenance": false, "terminal_type": "sign", "bike_list": [{"number": "32965", "bike_type": 71, "lock_types": ["frame_lock"], "active": true, "state": "ok", "electric_lock": true, "boardcomputer": 7551138159, "pedelec_battery": null, "battery_pack": null}, {"number": "32763", "bike_type": 196, "lock_types": ["frame_lock"], "active": true, "state": "ok", "electric_lock": true, "boardcomputer": 7551155838, "pedelec_battery": null, "battery_pack": null}, {"number": "32706", "bike_type": 71, "lock_types": ["frame_lock"], "active": true, "state": "ok", "electric_lock": true, "boardcomputer": 7551150941, "pedelec_battery": null, "battery_pack": null}, {"number": "32630", "bike_type": 71, "lock_types": ["frame_lock"], "active": true, "state": "ok", "electric_lock": true, "boardcomputer": 7551007173, "pedelec_battery": null, "battery_pack": null}, {"number": "32603", "bike_type": 71, "lock_types": ["frame_lock"], "active": true, "state": "ok", "electric_lock": true, "boardcomputer": 7551125786, "pedelec_battery": null, "battery_pack": null}, {"number": "35658", "bike_type": 150, "lock_types": ["frame_lock"], "active": true, "state": "ok", "electric_lock": true, "boardcomputer": 7551089660, "pedelec_battery": null, "battery_pack": null}, {"number": "35656", "bike_type": 150, "lock_types": ["frame_lock"], "active": true, "state": "ok", "electric_lock": true, "boardcomputer": 7551089857, "pedelec_battery": null, "battery_pack": null}], "bike_numbers": ["32965", "32763", "32706", "32630", "32603", "35658", "35656"], "bike_types": {"71": 4, "150": 2, "196": 1}, "place_type": "18", "rack_locks": false}, {"uid": 15430958, "lat": 47.982453, "lng": 7.802845, "bike": false, "name": "Basler Landstra\u00dfe/Blumenstra\u00dfe", "address": "Basler Stra\u00dfe 38", "spot": true, "number": 3684, "booked_bikes": 0, "bikes": 0, "bikes_available_to_rent": 0, "bike_racks": 5, "free_racks": 5, "special_racks": 0, "free_special_racks": 0, "maintenance": false, "terminal_type": "sign", "bike_list": [], "bike_numbers": [], "bike_types": {}, "place_type": "0", "rack_locks": false}, {"uid": 15430974, "lat": 47.980291, "lng": 7.821829, "bike": false, "name": "L\u00f6rracher Stra\u00dfe", "address": "L\u00f6rracher Stra\u00dfe 16", "spot": true, "number": 3685, "booked_bikes": 0, "bikes": 14, "bikes_available_to_rent": 14, "bike_racks": 8, "free_racks": 0, "special_racks": 0, "free_special_racks": 0, "maintenance": false, "terminal_type": "sign", "bike_list": [{"number": "32935", "bike_type": 71, "lock_types": ["frame_lock"], "active": true, "state": "ok", "electric_lock": true, "boardcomputer": 7551131843, "pedelec_battery": null, "battery_pack": null}, {"number": "32842", "bike_type": 71, "lock_types": ["frame_lock"], "active": true, "state": "ok", "electric_lock": true, "boardcomputer": 7551129355, "pedelec_battery": null, "battery_pack": null}, {"number": "32790", "bike_type": 71, "lock_types": ["frame_lock"], "active": true, "state": "ok", "electric_lock": true, "boardcomputer": 7551151509, "pedelec_battery": null, "battery_pack": null}, {"number": "32740", "bike_type": 71, "lock_types": ["frame_lock"], "active": true, "state": "ok", "electric_lock": true, "boardcomputer": 7551131801, "pedelec_battery": null, "battery_pack": null}, {"number": "32707", "bike_type": 71, "lock_types": ["frame_lock"], "active": true, "state": "ok", "electric_lock": true, "boardcomputer": 7551005567, "pedelec_battery": null, "battery_pack": null}, {"number": "32628", "bike_type": 71, "lock_types": ["frame_lock"], "active": true, "state": "ok", "electric_lock": true, "boardcomputer": 7551135770, "pedelec_battery": null, "battery_pack": null}, {"number": "32621", "bike_type": 196, "lock_types": ["frame_lock"], "active": true, "state": "ok", "electric_lock": true, "boardcomputer": 7551034577, "pedelec_battery": null, "battery_pack": null}, {"number": "32504", "bike_type": 196, "lock_types": ["frame_lock"], "active": true, "state": "ok", "electric_lock": true, "boardcomputer": 7551153996, "pedelec_battery": null, "battery_pack": null}, {"number": "33946", "bike_type": 196, "lock_types": ["frame_lock"], "active": true, "state": "ok", "electric_lock": true, "boardcomputer": 7551153907, "pedelec_battery": null, "battery_pack": null}, {"number": "33498", "bike_type": 150, "lock_types": ["frame_lock"], "active": true, "state": "ok", "electric_lock": true, "boardcomputer": 7551034890, "pedelec_battery": null, "battery_pack": null}, {"number": "33493", "bike_type": 71, "lock_types": ["frame_lock"], "active": true, "state": "ok", "electric_lock": true, "boardcomputer": 7551126670, "pedelec_battery": null, "battery_pack": null}, {"number": "35585", "bike_type": 150, "lock_types": ["frame_lock"], "active": true, "state": "ok", "electric_lock": true, "boardcomputer": 7551123010, "pedelec_battery": null, "battery_pack": null}, {"number": "35579", "bike_type": 196, "lock_types": ["frame_lock"], "active": true, "state": "ok", "electric_lock": true, "boardcomputer": 7551123028, "pedelec_battery": null, "battery_pack": null}, {"number": "33440", "bike_type": 71, "lock_types": ["frame_lock"], "active": true, "state": "ok", "electric_lock": true, "boardcomputer": 7551122791, "pedelec_battery": null, "battery_pack": null}], "bike_numbers": ["32935", "32842", "32790", "32740", "32707", "32628", "32621", "32504", "33946", "33498", "33493", "35585", "35579", "33440"], "bike_types": {"71": 8, "150": 2, "196": 4}, "place_type": "0", "rack_locks": false}, {"uid": 15430995, "lat": 47.98821, "lng": 7.79626, "bike": false, "name": "Munzinger Stra\u00dfe (FreloPlus)", "address": "Munzinger Stra\u00dfe", "spot": true, "number": 3686, "booked_bikes": 0, "bikes": 9, "bikes_available_to_rent": 9, "bike_racks": 11, "free_racks": 2, "special_racks": 0, "free_special_racks": 0, "maintenance": false, "terminal_type": "sign", "bike_list": [{"number": "32974", "bike_type": 71, "lock_types": ["frame_lock"], "active": true, "state": "ok", "electric_lock": true, "boardcomputer": 7551151299, "pedelec_battery": null, "battery_pack": null}, {"number": "32952", "bike_type": 71, "lock_types": ["frame_lock"], "active": true, "state": "ok", "electric_lock": true, "boardcomputer": 7551128904, "pedelec_battery": null, "battery_pack": null}, {"number": "32940", "bike_type": 71, "lock_types": ["frame_lock"], "active": true, "state": "ok", "electric_lock": true, "boardcomputer": 7551124982, "pedelec_battery": null, "battery_pack": null}, {"number": "32789", "bike_type": 71, "lock_types": ["frame_lock"], "active": true, "state": "ok", "electric_lock": true, "boardcomputer": 7551150925, "pedelec_battery": null, "battery_pack": null}, {"number": "32709", "bike_type": 71, "lock_types": ["frame_lock"], "active": true, "state": "ok", "electric_lock": true, "boardcomputer": 7551132921, "pedelec_battery": null, "battery_pack": null}, {"number": "32686", "bike_type": 150, "lock_types": ["frame_lock"], "active": true, "state": "ok", "electric_lock": true, "boardcomputer": 7551038673, "pedelec_battery": null, "battery_pack": null}, {"number": "325018", "bike_type": 181, "lock_types": ["frame_lock"], "active": true, "state": "ok", "electric_lock": true, "boardcomputer": 7551062165, "pedelec_battery": 79, "battery_pack": {"percentage": 79}}, {"number": "325012", "bike_type": 181, "lock_types": ["frame_lock"], "active": true, "state": "ok", "electric_lock": true, "boardcomputer": 7551059260, "pedelec_battery": 78, "battery_pack": {"percentage": 78}}, {"number": "35551", "bike_type": 71, "lock_types": ["frame_lock"], "active": true, "state": "ok", "electric_lock": true, "boardcomputer": 7551121753, "pedelec_battery": null, "battery_pack": null}], "bike_numbers": ["32974", "32952", "32940", "32789", "32709", "32686", "325018", "325012", "35551"], "bike_types": {"71": 6, "150": 1, "181": 2}, "place_type": "18", "rack_locks": false}, {"uid": 15431037, "lat": 47.99784, "lng": 7.80339, "bike": false, "name": "Bugginger Stra\u00dfe", "address": "Bugginger Stra\u00dfe 41", "spot": true, "number": 3687, "booked_bikes": 0, "bikes": 5, "bikes_available_to_rent": 5, "bike_racks": 6, "free_racks": 1, "special_racks": 0, "free_special_racks": 0, "maintenance": false, "terminal_type": "sign", "bike_list": [{"number": "32866", "bike_type": 71, "lock_types": ["frame_lock"], "active": true, "state": "ok", "electric_lock": true, "boardcomputer": 7551092607, "pedelec_battery": null, "battery_pack": null}, {"number": "32855", "bike_type": 71, "lock_types": ["frame_lock"], "active": true, "state": "ok", "electric_lock": true, "boardcomputer": 7551026137, "pedelec_battery": null, "battery_pack": null}, {"number": "32735", "bike_type": 71, "lock_types": ["frame_lock"], "active": true, "state": "ok", "electric_lock": true, "boardcomputer": 7551133976, "pedelec_battery": null, "battery_pack": null}, {"number": "32583", "bike_type": 71, "lock_types": ["frame_lock"], "active": true, "state": "ok", "electric_lock": true, "boardcomputer": 7551150540, "pedelec_battery": null, "battery_pack": null}, {"number": "33943", "bike_type": 196, "lock_types": ["frame_lock"], "active": true, "state": "ok", "electric_lock": true, "boardcomputer": 7551153914, "pedelec_battery": null, "battery_pack": null}], "bike_numbers": ["32866", "32855", "32735", "32583", "33943"], "bike_types": {"71": 4, "196": 1}, "place_type": "0", "rack_locks": false}, {"uid": 15431062, "lat": 47.999744, "lng": 7.790629, "bike": false, "name": "Maria-von-Rudloff-Platz", "address": "Carl von Ossietzky Stra\u00dfe", "spot": true, "number": 3688, "booked_bikes": 0, "bikes": 12, "bikes_available_to_rent": 12, "bike_racks": 5, "free_racks": 0, "special_racks": 0, "free_special_racks": 0, "maintenance": false, "terminal_type": "sign", "bike_list": [{"number": "32884", "bike_type": 196, "lock_types": ["frame_lock"], "active": true, "state": "ok", "electric_lock": true, "boardcomputer": 7551168086, "pedelec_battery": null, "battery_pack": null}, {"number": "32851", "bike_type": 71, "lock_types": ["frame_lock"], "active": true, "state": "ok", "electric_lock": true, "boardcomputer": 7551125017, "pedelec_battery": null, "battery_pack": null}, {"number": "32788", "bike_type": 71, "lock_types": ["frame_lock"], "active": true, "state": "ok", "electric_lock": true, "boardcomputer": 7551134258, "pedelec_battery": null, "battery_pack": null}, {"number": "32711", "bike_type": 150, "lock_types": ["frame_lock"], "active": true, "state": "ok", "electric_lock": true, "boardcomputer": 7551151301, "pedelec_battery": null, "battery_pack": null}, {"number": "32643", "bike_type": 196, "lock_types": ["frame_lock"], "active": true, "state": "ok", "electric_lock": true, "boardcomputer": 7551092633, "pedelec_battery": null, "battery_pack": null}, {"number": "32599", "bike_type": 71, "lock_types": ["frame_lock"], "active": true, "state": "ok", "electric_lock": true, "boardcomputer": 7551125240, "pedelec_battery": null, "battery_pack": null}, {"number": "32582", "bike_type": 196, "lock_types": ["frame_lock"], "active": true, "state": "ok", "electric_lock": true, "boardcomputer": 7551141488, "pedelec_battery": null, "battery_pack": null}, {"number": "33912", "bike_type": 150, "lock_types": ["frame_lock"], "active": true, "state": "ok", "electric_lock": true, "boardcomputer": 7551068688, "pedelec_battery": null, "battery_pack": null}, {"number": "33911", "bike_type": 71, "lock_types": ["frame_lock"], "active": true, "state": "ok", "electric_lock": true, "boardcomputer": 7551152306, "pedelec_battery": null, "battery_pack": null}, {"number": "35684", "bike_type": 196, "lock_types": ["frame_lock"], "active": true, "state": "ok", "electric_lock": true, "boardcomputer": 7551159027, "pedelec_battery": null, "battery_pack": null}, {"number": "35554", "bike_type": 71, "lock_types": ["frame_lock"], "active": true, "state": "ok", "electric_lock": true, "boardcomputer": 7551121841, "pedelec_battery": null, "battery_pack": null}, {"number": "33476", "bike_type": 71, "lock_types": ["frame_lock"], "active": true, "state": "ok", "electric_lock": true, "boardcomputer": 7551131639, "pedelec_battery": null, "battery_pack": null}], "bike_numbers": ["32884", "32851", "32788", "32711", "32643", "32599", "32582", "33912", "33911", "35684", "35554", "33476"], "bike_types": {"71": 6, "150": 2, "196": 4}, "place_type": "0", "rack_locks": false}, {"uid": 15431106, "lat": 47.97616, "lng": 7.818747, "bike": false, "name": "Innsbrucker Stra\u00dfe", "address": "Vabaunallee", "spot": true, "number": 3689, "booked_bikes": 0, "bikes": 12, "bikes_available_to_rent": 12, "bike_racks": 10, "free_racks": 0, "special_racks": 0, "free_special_racks": 0, "maintenance": false, "terminal_type": "sign", "bike_list": [{"number": "32975", "bike_type": 196, "lock_types": ["frame_lock"], "active": true, "state": "ok", "electric_lock": true, "boardcomputer": 7551171020, "pedelec_battery": null, "battery_pack": null}, {"number": "32958", "bike_type": 71, "lock_types": ["frame_lock"], "active": true, "state": "ok", "electric_lock": true, "boardcomputer": 7551151378, "pedelec_battery": null, "battery_pack": null}, {"number": "32934", "bike_type": 71, "lock_types": ["frame_lock"], "active": true, "state": "ok", "electric_lock": true, "boardcomputer": 7551026686, "pedelec_battery": null, "battery_pack": null}, {"number": "32750", "bike_type": 71, "lock_types": ["frame_lock"], "active": true, "state": "ok", "electric_lock": true, "boardcomputer": 7551154049, "pedelec_battery": null, "battery_pack": null}, {"number": "32617", "bike_type": 71, "lock_types": ["frame_lock"], "active": true, "state": "ok", "electric_lock": true, "boardcomputer": 7551125013, "pedelec_battery": null, "battery_pack": null}, {"number": "32612", "bike_type": 196, "lock_types": ["frame_lock"], "active": true, "state": "ok", "electric_lock": true, "boardcomputer": 7551164012, "pedelec_battery": null, "battery_pack": null}, {"number": "32595", "bike_type": 196, "lock_types": ["frame_lock"], "active": true, "state": "ok", "electric_lock": true, "boardcomputer": 7551164122, "pedelec_battery": null, "battery_pack": null}, {"number": "35646", "bike_type": 196, "lock_types": ["frame_lock"], "active": true, "state": "ok", "electric_lock": true, "boardcomputer": 7551160893, "pedelec_battery": null, "battery_pack": null}, {"number": "35618", "bike_type": 196, "lock_types": ["frame_lock"], "active": true, "state": "ok", "electric_lock": true, "boardcomputer": 7551150933, "pedelec_battery": null, "battery_pack": null}, {"number": "35668", "bike_type": 196, "lock_types": ["frame_lock"], "active": true, "state": "ok", "electric_lock": true, "boardcomputer": 7551164144, "pedelec_battery": null, "battery_pack": null}, {"number": "33452", "bike_type": 71, "lock_types": ["frame_lock"], "active": true, "state": "ok", "electric_lock": true, "boardcomputer": 7551126368, "pedelec_battery": null, "battery_pack": null}, {"number": "325040", "bike_type": 150, "lock_types": ["frame_lock"], "active": true, "state": "ok", "electric_lock": true, "boardcomputer": 7551153578, "pedelec_battery": null, "battery_pack": null}], "bike_numbers": ["32975", "32958", "32934", "32750", "32617", "32612", "32595", "35646", "35618", "35668", "33452", "325040"], "bike_types": {"71": 5, "150": 1, "196": 6}, "place_type": "0", "rack_locks": false}, {"uid": 15431167, "lat": 47.997669, "lng": 7.852481, "bike": false, "name": "Europaplatz", "address": "Auf der Zinnen", "spot": true, "number": 3690, "booked_bikes": 0, "bikes": 7, "bikes_available_to_rent": 7, "bike_racks": 12, "free_racks": 5, "special_racks": 0, "free_special_racks": 0, "maintenance": false, "terminal_type": "7inch", "bike_list": [{"number": "32929", "bike_type": 71, "lock_types": ["frame_lock"], "active": true, "state": "ok", "electric_lock": true, "boardcomputer": 7551160626, "pedelec_battery": null, "battery_pack": null}, {"number": "32849", "bike_type": 196, "lock_types": ["frame_lock"], "active": true, "state": "ok", "electric_lock": true, "boardcomputer": 7551092561, "pedelec_battery": null, "battery_pack": null}, {"number": "32803", "bike_type": 71, "lock_types": ["frame_lock"], "active": true, "state": "ok", "electric_lock": true, "boardcomputer": 7551125937, "pedelec_battery": null, "battery_pack": null}, {"number": "32753", "bike_type": 196, "lock_types": ["frame_lock"], "active": true, "state": "ok", "electric_lock": true, "boardcomputer": 7551164015, "pedelec_battery": null, "battery_pack": null}, {"number": "32710", "bike_type": 196, "lock_types": ["frame_lock"], "active": true, "state": "ok", "electric_lock": true, "boardcomputer": 7551159029, "pedelec_battery": null, "battery_pack": null}, {"number": "33919", "bike_type": 150, "lock_types": ["frame_lock"], "active": true, "state": "ok", "electric_lock": true, "boardcomputer": 7551002625, "pedelec_battery": null, "battery_pack": null}, {"number": "35655", "bike_type": 150, "lock_types": ["frame_lock"], "active": true, "state": "ok", "electric_lock": true, "boardcomputer": 7551089839, "pedelec_battery": null, "battery_pack": null}], "bike_numbers": ["32929", "32849", "32803", "32753", "32710", "33919", "35655"], "bike_types": {"71": 2, "150": 2, "196": 3}, "place_type": "0", "rack_locks": false}, {"uid": 15431188, "lat": 47.99743, "lng": 7.8425, "bike": false, "name": "Hauptbahnhof", "address": "Bismarckallee 8", "spot": true, "number": 3691, "booked_bikes": 0, "bikes": 19, "bikes_available_to_rent": 19, "bike_racks": 10, "free_racks": 0, "special_racks": 0, "free_special_racks": 0, "maintenance": false, "terminal_type": "7inch", "bike_list": [{"number": "32977", "bike_type": 150, "lock_types": ["frame_lock"], "active": true, "state": "ok", "electric_lock": true, "boardcomputer": 7551150936, "pedelec_battery": null, "battery_pack": null}, {"number": "32917", "bike_type": 150, "lock_types": ["frame_lock"], "active": true, "state": "ok", "electric_lock": true, "boardcomputer": 7551159696, "pedelec_battery": null, "battery_pack": null}, {"number": "32896", "bike_type": 196, "lock_types": ["frame_lock"], "active": true, "state": "ok", "electric_lock": true, "boardcomputer": 7551159030, "pedelec_battery": null, "battery_pack": null}, {"number": "32893", "bike_type": 71, "lock_types": ["frame_lock"], "active": true, "state": "ok", "electric_lock": true, "boardcomputer": 7551025973, "pedelec_battery": null, "battery_pack": null}, {"number": "32881", "bike_type": 71, "lock_types": ["frame_lock"], "active": true, "state": "ok", "electric_lock": true, "boardcomputer": 7551123860, "pedelec_battery": null, "battery_pack": null}, {"number": "32819", "bike_type": 150, "lock_types": ["frame_lock"], "active": true, "state": "ok", "electric_lock": true, "boardcomputer": 7551151230, "pedelec_battery": null, "battery_pack": null}, {"number": "32804", "bike_type": 71, "lock_types": ["frame_lock"], "active": true, "state": "ok", "electric_lock": true, "boardcomputer": 7551135764, "pedelec_battery": null, "battery_pack": null}, {"number": "32733", "bike_type": 71, "lock_types": ["frame_lock"], "active": true, "state": "ok", "electric_lock": true, "boardcomputer": 7551123739, "pedelec_battery": null, "battery_pack": null}, {"number": "32663", "bike_type": 71, "lock_types": ["frame_lock"], "active": true, "state": "ok", "electric_lock": true, "boardcomputer": 7551132471, "pedelec_battery": null, "battery_pack": null}, {"number": "32641", "bike_type": 150, "lock_types": ["frame_lock"], "active": true, "state": "ok", "electric_lock": true, "boardcomputer": 7551133962, "pedelec_battery": null, "battery_pack": null}, {"number": "32634", "bike_type": 71, "lock_types": ["frame_lock"], "active": true, "state": "ok", "electric_lock": true, "boardcomputer": 7551152441, "pedelec_battery": null, "battery_pack": null}, {"number": "32565", "bike_type": 150, "lock_types": ["frame_lock"], "active": true, "state": "ok", "electric_lock": true, "boardcomputer": 7551145214, "pedelec_battery": null, "battery_pack": null}, {"number": "32519", "bike_type": 150, "lock_types": ["frame_lock"], "active": true, "state": "ok", "electric_lock": true, "boardcomputer": 7551018997, "pedelec_battery": null, "battery_pack": null}, {"number": "33949", "bike_type": 150, "lock_types": ["frame_lock"], "active": true, "state": "ok", "electric_lock": true, "boardcomputer": 7551038653, "pedelec_battery": null, "battery_pack": null}, {"number": "33930", "bike_type": 150, "lock_types": ["frame_lock"], "active": true, "state": "ok", "electric_lock": true, "boardcomputer": 7551121442, "pedelec_battery": null, "battery_pack": null}, {"number": "33904", "bike_type": 150, "lock_types": ["frame_lock"], "active": true, "state": "ok", "electric_lock": true, "boardcomputer": 7551159693, "pedelec_battery": null, "battery_pack": null}, {"number": "33431", "bike_type": 71, "lock_types": ["frame_lock"], "active": true, "state": "ok", "electric_lock": true, "boardcomputer": 7551150401, "pedelec_battery": null, "battery_pack": null}, {"number": "325028", "bike_type": 196, "lock_types": ["frame_lock"], "active": true, "state": "ok", "electric_lock": true, "boardcomputer": 7551168178, "pedelec_battery": null, "battery_pack": null}, {"number": "325020", "bike_type": 196, "lock_types": ["frame_lock"], "active": true, "state": "ok", "electric_lock": true, "boardcomputer": 7551167617, "pedelec_battery": null, "battery_pack": null}], "bike_numbers": ["32977", "32917", "32896", "32893", "32881", "32819", "32804", "32733", "32663", "32641", "32634", "32565", "32519", "33949", "33930", "33904", "33431", "325028", "325020"], "bike_types": {"71": 7, "150": 9, "196": 3}, "place_type": "0", "rack_locks": false}, {"uid": 15431210, "lat": 48.012112, "lng": 7.835758, "bike": false, "name": "Madisonallee/Technische Fakult\u00e4t ", "address": "Madisonallee/Emmy-Noether-Stra\u00dfe", "spot": true, "number": 3694, "booked_bikes": 0, "bikes": 22, "bikes_available_to_rent": 22, "bike_racks": 8, "free_racks": 0, "special_racks": 0, "free_special_racks": 0, "maintenance": true, "terminal_type": "", "bike_list": [{"number": "32947", "bike_type": 71, "lock_types": ["frame_lock"], "active": true, "state": "ok", "electric_lock": true, "boardcomputer": 7551126253, "pedelec_battery": null, "battery_pack": null}, {"number": "32877", "bike_type": 196, "lock_types": ["frame_lock"], "active": true, "state": "ok", "electric_lock": true, "boardcomputer": 7551164163, "pedelec_battery": null, "battery_pack": null}, {"number": "32841", "bike_type": 71, "lock_types": ["frame_lock"], "active": true, "state": "ok", "electric_lock": true, "boardcomputer": 7551151770, "pedelec_battery": null, "battery_pack": null}, {"number": "32785", "bike_type": 196, "lock_types": ["frame_lock"], "active": true, "state": "ok", "electric_lock": true, "boardcomputer": 7551092627, "pedelec_battery": null, "battery_pack": null}, {"number": "32755", "bike_type": 71, "lock_types": ["frame_lock"], "active": true, "state": "ok", "electric_lock": true, "boardcomputer": 7551151769, "pedelec_battery": null, "battery_pack": null}, {"number": "32684", "bike_type": 71, "lock_types": ["frame_lock"], "active": true, "state": "ok", "electric_lock": true, "boardcomputer": 7551137995, "pedelec_battery": null, "battery_pack": null}, {"number": "32576", "bike_type": 71, "lock_types": ["frame_lock"], "active": true, "state": "ok", "electric_lock": true, "boardcomputer": 7551160688, "pedelec_battery": null, "battery_pack": null}, {"number": "32551", "bike_type": 150, "lock_types": ["frame_lock"], "active": true, "state": "ok", "electric_lock": true, "boardcomputer": 7551038875, "pedelec_battery": null, "battery_pack": null}, {"number": "32538", "bike_type": 196, "lock_types": ["frame_lock"], "active": true, "state": "ok", "electric_lock": true, "boardcomputer": 7551153993, "pedelec_battery": null, "battery_pack": null}, {"number": "32533", "bike_type": 71, "lock_types": ["frame_lock"], "active": true, "state": "ok", "electric_lock": true, "boardcomputer": 7551128911, "pedelec_battery": null, "battery_pack": null}, {"number": "33940", "bike_type": 71, "lock_types": ["frame_lock"], "active": true, "state": "ok", "electric_lock": true, "boardcomputer": 7551123815, "pedelec_battery": null, "battery_pack": null}, {"number": "33496", "bike_type": 150, "lock_types": ["frame_lock"], "active": true, "state": "ok", "electric_lock": true, "boardcomputer": 7551128444, "pedelec_battery": null, "battery_pack": null}, {"number": "33489", "bike_type": 71, "lock_types": ["frame_lock"], "active": true, "state": "ok", "electric_lock": true, "boardcomputer": 7551125015, "pedelec_battery": null, "battery_pack": null}, {"number": "35609", "bike_type": 150, "lock_types": ["frame_lock"], "active": true, "state": "ok", "electric_lock": true, "boardcomputer": 7551130656, "pedelec_battery": null, "battery_pack": null}, {"number": "35593", "bike_type": 150, "lock_types": ["frame_lock"], "active": true, "state": "ok", "electric_lock": true, "boardcomputer": 7551112714, "pedelec_battery": null, "battery_pack": null}, {"number": "35567", "bike_type": 71, "lock_types": ["frame_lock"], "active": true, "state": "ok", "electric_lock": true, "boardcomputer": 7551121145, "pedelec_battery": null, "battery_pack": null}, {"number": "33465", "bike_type": 71, "lock_types": ["frame_lock"], "active": true, "state": "ok", "electric_lock": true, "boardcomputer": 7551131668, "pedelec_battery": null, "battery_pack": null}, {"number": "33432", "bike_type": 71, "lock_types": ["frame_lock"], "active": true, "state": "ok", "electric_lock": true, "boardcomputer": 7551150341, "pedelec_battery": null, "battery_pack": null}, {"number": "325064", "bike_type": 150, "lock_types": ["frame_lock"], "active": true, "state": "ok", "electric_lock": true, "boardcomputer": 7551153621, "pedelec_battery": null, "battery_pack": null}, {"number": "325063", "bike_type": 196, "lock_types": ["frame_lock"], "active": true, "state": "ok", "electric_lock": true, "boardcomputer": 7551159006, "pedelec_battery": null, "battery_pack": null}, {"number": "325062", "bike_type": 196, "lock_types": ["frame_lock"], "active": true, "state": "ok", "electric_lock": true, "boardcomputer": 7551153904, "pedelec_battery": null, "battery_pack": null}, {"number": "325027", "bike_type": 196, "lock_types": ["frame_lock"], "active": true, "state": "ok", "electric_lock": true, "boardcomputer": 7551167623, "pedelec_battery": null, "battery_pack": null}], "bike_numbers": ["32947", "32877", "32841", "32785", "32755", "32684", "32576", "32551", "32538", "32533", "33940", "33496", "33489", "35609", "35593", "35567", "33465", "33432", "325064", "325063", "325062", "325027"], "bike_types": {"71": 11, "150": 5, "196": 6}, "place_type": "0", "rack_locks": false}, {"uid": 15432600, "lat": 47.981851, "lng": 7.894058, "bike": false, "name": "Bahnhof Littenweiler/PH", "address": "Lindenmattenstra\u00dfe 13-17", "spot": true, "number": 3695, "booked_bikes": 0, "bikes": 1, "bikes_available_to_rent": 1, "bike_racks": 9, "free_racks": 8, "special_racks": 0, "free_special_racks": 0, "maintenance": true, "terminal_type": "7inch", "bike_list": [{"number": "32625", "bike_type": 71, "lock_types": ["frame_lock"], "active": true, "state": "ok", "electric_lock": true, "boardcomputer": 7551135769, "pedelec_battery": null, "battery_pack": null}], "bike_numbers": ["32625"], "bike_types": {"71": 1}, "place_type": "0", "rack_locks": false}, {"uid": 15433691, "lat": 48.000858, "lng": 7.849587, "bike": false, "name": "Albertstra\u00dfe/Institutsviertel", "address": "Albertstra\u00dfe", "spot": true, "number": 3724, "booked_bikes": 0, "bikes": 34, "bikes_available_to_rent": 34, "bike_racks": 12, "free_racks": 0, "special_racks": 0, "free_special_racks": 0, "maintenance": false, "terminal_type": "sign", "bike_list": [{"number": "32968", "bike_type": 150, "lock_types": ["frame_lock"], "active": true, "state": "ok", "electric_lock": true, "boardcomputer": 7551159698, "pedelec_battery": null, "battery_pack": null}, {"number": "32919", "bike_type": 196, "lock_types": ["frame_lock"], "active": true, "state": "ok", "electric_lock": true, "boardcomputer": 7551150399, "pedelec_battery": null, "battery_pack": null}, {"number": "32894", "bike_type": 71, "lock_types": ["frame_lock"], "active": true, "state": "ok", "electric_lock": true, "boardcomputer": 7551126956, "pedelec_battery": null, "battery_pack": null}, {"number": "32879", "bike_type": 71, "lock_types": ["frame_lock"], "active": true, "state": "ok", "electric_lock": true, "boardcomputer": 7551171598, "pedelec_battery": null, "battery_pack": null}, {"number": "32874", "bike_type": 71, "lock_types": ["frame_lock"], "active": true, "state": "ok", "electric_lock": true, "boardcomputer": 7551126736, "pedelec_battery": null, "battery_pack": null}, {"number": "32861", "bike_type": 71, "lock_types": ["frame_lock"], "active": true, "state": "ok", "electric_lock": true, "boardcomputer": 7551151370, "pedelec_battery": null, "battery_pack": null}, {"number": "32828", "bike_type": 150, "lock_types": ["frame_lock"], "active": true, "state": "ok", "electric_lock": true, "boardcomputer": 7551150505, "pedelec_battery": null, "battery_pack": null}, {"number": "32822", "bike_type": 196, "lock_types": ["frame_lock"], "active": true, "state": "ok", "electric_lock": true, "boardcomputer": 7551168077, "pedelec_battery": null, "battery_pack": null}, {"number": "32781", "bike_type": 71, "lock_types": ["frame_lock"], "active": true, "state": "ok", "electric_lock": true, "boardcomputer": 7551151512, "pedelec_battery": null, "battery_pack": null}, {"number": "32758", "bike_type": 71, "lock_types": ["frame_lock"], "active": true, "state": "ok", "electric_lock": true, "boardcomputer": 7551159710, "pedelec_battery": null, "battery_pack": null}, {"number": "32757", "bike_type": 71, "lock_types": ["frame_lock"], "active": true, "state": "ok", "electric_lock": true, "boardcomputer": 7551164203, "pedelec_battery": null, "battery_pack": null}, {"number": "32741", "bike_type": 71, "lock_types": ["frame_lock"], "active": true, "state": "ok", "electric_lock": true, "boardcomputer": 7551123726, "pedelec_battery": null, "battery_pack": null}, {"number": "32718", "bike_type": 196, "lock_types": ["frame_lock"], "active": true, "state": "ok", "electric_lock": true, "boardcomputer": 7551069934, "pedelec_battery": null, "battery_pack": null}, {"number": "32669", "bike_type": 196, "lock_types": ["frame_lock"], "active": true, "state": "ok", "electric_lock": true, "boardcomputer": 7551153984, "pedelec_battery": null, "battery_pack": null}, {"number": "32666", "bike_type": 71, "lock_types": ["frame_lock"], "active": true, "state": "ok", "electric_lock": true, "boardcomputer": 7551127206, "pedelec_battery": null, "battery_pack": null}, {"number": "32602", "bike_type": 71, "lock_types": ["frame_lock"], "active": true, "state": "ok", "electric_lock": true, "boardcomputer": 7551135128, "pedelec_battery": null, "battery_pack": null}, {"number": "32572", "bike_type": 71, "lock_types": ["frame_lock"], "active": true, "state": "ok", "electric_lock": true, "boardcomputer": 7551125179, "pedelec_battery": null, "battery_pack": null}, {"number": "32569", "bike_type": 71, "lock_types": ["frame_lock"], "active": true, "state": "ok", "electric_lock": true, "boardcomputer": 7551126247, "pedelec_battery": null, "battery_pack": null}, {"number": "32561", "bike_type": 150, "lock_types": ["frame_lock"], "active": true, "state": "ok", "electric_lock": true, "boardcomputer": 7551130875, "pedelec_battery": null, "battery_pack": null}, {"number": "33933", "bike_type": 71, "lock_types": ["frame_lock"], "active": true, "state": "ok", "electric_lock": true, "boardcomputer": 7551123758, "pedelec_battery": null, "battery_pack": null}, {"number": "35659", "bike_type": 196, "lock_types": ["frame_lock"], "active": true, "state": "ok", "electric_lock": true, "boardcomputer": 7551092452, "pedelec_battery": null, "battery_pack": null}, {"number": "35612", "bike_type": 150, "lock_types": ["frame_lock"], "active": true, "state": "ok", "electric_lock": true, "boardcomputer": 7551015980, "pedelec_battery": null, "battery_pack": null}, {"number": "35669", "bike_type": 196, "lock_types": ["frame_lock"], "active": true, "state": "ok", "electric_lock": true, "boardcomputer": 7551159026, "pedelec_battery": null, "battery_pack": null}, {"number": "35662", "bike_type": 150, "lock_types": ["frame_lock"], "active": true, "state": "ok", "electric_lock": true, "boardcomputer": 7551155924, "pedelec_battery": null, "battery_pack": null}, {"number": "35595", "bike_type": 71, "lock_types": ["frame_lock"], "active": true, "state": "ok", "electric_lock": true, "boardcomputer": 7551108994, "pedelec_battery": null, "battery_pack": null}, {"number": "35568", "bike_type": 71, "lock_types": ["frame_lock"], "active": true, "state": "ok", "electric_lock": true, "boardcomputer": 7551119915, "pedelec_battery": null, "battery_pack": null}, {"number": "35555", "bike_type": 71, "lock_types": ["frame_lock"], "active": true, "state": "ok", "electric_lock": true, "boardcomputer": 7551118132, "pedelec_battery": null, "battery_pack": null}, {"number": "33470", "bike_type": 71, "lock_types": ["frame_lock"], "active": true, "state": "ok", "electric_lock": true, "boardcomputer": 7551034312, "pedelec_battery": null, "battery_pack": null}, {"number": "33464", "bike_type": 71, "lock_types": ["frame_lock"], "active": true, "state": "ok", "electric_lock": true, "boardcomputer": 7551131799, "pedelec_battery": null, "battery_pack": null}, {"number": "33447", "bike_type": 71, "lock_types": ["frame_lock"], "active": true, "state": "ok", "electric_lock": true, "boardcomputer": 7551131785, "pedelec_battery": null, "battery_pack": null}, {"number": "325069", "bike_type": 150, "lock_types": ["frame_lock"], "active": true, "state": "ok", "electric_lock": true, "boardcomputer": 7551164119, "pedelec_battery": null, "battery_pack": null}, {"number": "325037", "bike_type": 196, "lock_types": ["frame_lock"], "active": true, "state": "ok", "electric_lock": true, "boardcomputer": 7551153542, "pedelec_battery": null, "battery_pack": null}, {"number": "325030", "bike_type": 196, "lock_types": ["frame_lock"], "active": true, "state": "ok", "electric_lock": true, "boardcomputer": 7551167622, "pedelec_battery": null, "battery_pack": null}, {"number": "325025", "bike_type": 196, "lock_types": ["frame_lock"], "active": true, "state": "ok", "electric_lock": true, "boardcomputer": 7551168180, "pedelec_battery": null, "battery_pack": null}], "bike_numbers": ["32968", "32919", "32894", "32879", "32874", "32861", "32828", "32822", "32781", "32758", "32757", "32741", "32718", "32669", "32666", "32602", "32572", "32569", "32561", "33933", "35659", "35612", "35669", "35662", "35595", "35568", "35555", "33470", "33464", "33447", "325069", "325037", "325030", "325025"], "bike_types": {"71": 19, "150": 6, "196": 9}, "place_type": "0", "rack_locks": false}, {"uid": 15433714, "lat": 47.998016, "lng": 7.848012, "bike": false, "name": "Fahnenbergplatz", "address": "Friedrichstra\u00dfe", "spot": true, "number": 3725, "booked_bikes": 0, "bikes": 3, "bikes_available_to_rent": 3, "bike_racks": 8, "free_racks": 5, "special_racks": 0, "free_special_racks": 0, "maintenance": false, "terminal_type": "sign", "bike_list": [{"number": "32992", "bike_type": 71, "lock_types": ["frame_lock"], "active": true, "state": "ok", "electric_lock": true, "boardcomputer": 7551143648, "pedelec_battery": null, "battery_pack": null}, {"number": "32903", "bike_type": 196, "lock_types": ["frame_lock"], "active": true, "state": "ok", "electric_lock": true, "boardcomputer": 7551171599, "pedelec_battery": null, "battery_pack": null}, {"number": "35667", "bike_type": 196, "lock_types": ["frame_lock"], "active": true, "state": "ok", "electric_lock": true, "boardcomputer": 7551145318, "pedelec_battery": null, "battery_pack": null}], "bike_numbers": ["32992", "32903", "35667"], "bike_types": {"71": 1, "196": 2}, "place_type": "0", "rack_locks": false}, {"uid": 15433732, "lat": 48.002664, "lng": 7.851253, "bike": false, "name": "Herrmann-Herder-Stra\u00dfe", "address": "Sautierstra\u00dfe 1", "spot": true, "number": 3726, "booked_bikes": 0, "bikes": 13, "bikes_available_to_rent": 13, "bike_racks": 10, "free_racks": 0, "special_racks": 0, "free_special_racks": 0, "maintenance": false, "terminal_type": "sign", "bike_list": [{"number": "32980", "bike_type": 196, "lock_types": ["frame_lock"], "active": true, "state": "ok", "electric_lock": true, "boardcomputer": 7551124941, "pedelec_battery": null, "battery_pack": null}, {"number": "32967", "bike_type": 71, "lock_types": ["frame_lock"], "active": true, "state": "ok", "electric_lock": true, "boardcomputer": 7551123728, "pedelec_battery": null, "battery_pack": null}, {"number": "32862", "bike_type": 71, "lock_types": ["frame_lock"], "active": true, "state": "ok", "electric_lock": true, "boardcomputer": 7551159694, "pedelec_battery": null, "battery_pack": null}, {"number": "32859", "bike_type": 71, "lock_types": ["frame_lock"], "active": true, "state": "ok", "electric_lock": true, "boardcomputer": 7551126929, "pedelec_battery": null, "battery_pack": null}, {"number": "32673", "bike_type": 71, "lock_types": ["frame_lock"], "active": true, "state": "ok", "electric_lock": true, "boardcomputer": 7551160717, "pedelec_battery": null, "battery_pack": null}, {"number": "32589", "bike_type": 71, "lock_types": ["frame_lock"], "active": true, "state": "ok", "electric_lock": true, "boardcomputer": 7551150939, "pedelec_battery": null, "battery_pack": null}, {"number": "32553", "bike_type": 150, "lock_types": ["frame_lock"], "active": true, "state": "ok", "electric_lock": true, "boardcomputer": 7551123825, "pedelec_battery": null, "battery_pack": null}, {"number": "32535", "bike_type": 196, "lock_types": ["frame_lock"], "active": true, "state": "ok", "electric_lock": true, "boardcomputer": 7551169224, "pedelec_battery": null, "battery_pack": null}, {"number": "32508", "bike_type": 150, "lock_types": ["frame_lock"], "active": true, "state": "ok", "electric_lock": true, "boardcomputer": 7551124944, "pedelec_battery": null, "battery_pack": null}, {"number": "33917", "bike_type": 71, "lock_types": ["frame_lock"], "active": true, "state": "ok", "electric_lock": true, "boardcomputer": 7551150126, "pedelec_battery": null, "battery_pack": null}, {"number": "35640", "bike_type": 150, "lock_types": ["frame_lock"], "active": true, "state": "ok", "electric_lock": true, "boardcomputer": 7551123983, "pedelec_battery": null, "battery_pack": null}, {"number": "35638", "bike_type": 150, "lock_types": ["frame_lock"], "active": true, "state": "ok", "electric_lock": true, "boardcomputer": 7551162258, "pedelec_battery": null, "battery_pack": null}, {"number": "35589", "bike_type": 71, "lock_types": ["frame_lock"], "active": true, "state": "ok", "electric_lock": true, "boardcomputer": 7551112255, "pedelec_battery": null, "battery_pack": null}], "bike_numbers": ["32980", "32967", "32862", "32859", "32673", "32589", "32553", "32535", "32508", "33917", "35640", "35638", "35589"], "bike_types": {"71": 7, "150": 4, "196": 2}, "place_type": "0", "rack_locks": false}, {"uid": 15433752, "lat": 47.999184, "lng": 7.85678, "bike": false, "name": "Ludwigstra\u00dfe/Landratsamt", "address": "Ludwigstra\u00dfe 14-24", "spot": true, "number": 3727, "booked_bikes": 0, "bikes": 5, "bikes_available_to_rent": 5, "bike_racks": 6, "free_racks": 1, "special_racks": 0, "free_special_racks": 0, "maintenance": false, "terminal_type": "sign", "bike_list": [{"number": "32973", "bike_type": 71, "lock_types": ["frame_lock"], "active": true, "state": "ok", "electric_lock": true, "boardcomputer": 7551125176, "pedelec_battery": null, "battery_pack": null}, {"number": "32902", "bike_type": 196, "lock_types": ["frame_lock"], "active": true, "state": "ok", "electric_lock": true, "boardcomputer": 7551164164, "pedelec_battery": null, "battery_pack": null}, {"number": "32622", "bike_type": 71, "lock_types": ["frame_lock"], "active": true, "state": "ok", "electric_lock": true, "boardcomputer": 7551152480, "pedelec_battery": null, "battery_pack": null}, {"number": "33932", "bike_type": 196, "lock_types": ["frame_lock"], "active": true, "state": "ok", "electric_lock": true, "boardcomputer": 7551170365, "pedelec_battery": null, "battery_pack": null}, {"number": "325044", "bike_type": 150, "lock_types": ["frame_lock"], "active": true, "state": "ok", "electric_lock": true, "boardcomputer": 7551153705, "pedelec_battery": null, "battery_pack": null}], "bike_numbers": ["32973", "32902", "32622", "33932", "325044"], "bike_types": {"71": 2, "150": 1, "196": 2}, "place_type": "0", "rack_locks": false}, {"uid": 15433765, "lat": 48.007374, "lng": 7.85957, "bike": false, "name": "Hauptstra\u00dfe", "address": "Hauptstra\u00dfe ggn. Hsnr. 24", "spot": true, "number": 3728, "booked_bikes": 0, "bikes": 0, "bikes_available_to_rent": 0, "bike_racks": 4, "free_racks": 4, "special_racks": 0, "free_special_racks": 0, "maintenance": false, "terminal_type": "sign", "bike_list": [], "bike_numbers": [], "bike_types": {}, "place_type": "0", "rack_locks": false}, {"uid": 15433788, "lat": 48.00811, "lng": 7.85047, "bike": false, "name": "Bahnhof Herdern", "address": "Kandelstra\u00dfe 31", "spot": true, "number": 3729, "booked_bikes": 0, "bikes": 0, "bikes_available_to_rent": 0, "bike_racks": 8, "free_racks": 8, "special_racks": 0, "free_special_racks": 0, "maintenance": false, "terminal_type": "sign", "bike_list": [], "bike_numbers": [], "bike_types": {}, "place_type": "0", "rack_locks": false}, {"uid": 15434215, "lat": 48.01205, "lng": 7.854987, "bike": false, "name": "H\u00e4ndelstra\u00dfe (FreloPlus)", "address": "H\u00e4ndelstra\u00dfe gg\u00fc Nr. 2", "spot": true, "number": 3730, "booked_bikes": 0, "bikes": 20, "bikes_available_to_rent": 20, "bike_racks": 12, "free_racks": 0, "special_racks": 0, "free_special_racks": 0, "maintenance": false, "terminal_type": "sign", "bike_list": [{"number": "32948", "bike_type": 71, "lock_types": ["frame_lock"], "active": true, "state": "ok", "electric_lock": true, "boardcomputer": 7551125073, "pedelec_battery": null, "battery_pack": null}, {"number": "32922", "bike_type": 150, "lock_types": ["frame_lock"], "active": true, "state": "ok", "electric_lock": true, "boardcomputer": 7551152305, "pedelec_battery": null, "battery_pack": null}, {"number": "32905", "bike_type": 150, "lock_types": ["frame_lock"], "active": true, "state": "ok", "electric_lock": true, "boardcomputer": 7551155833, "pedelec_battery": null, "battery_pack": null}, {"number": "32795", "bike_type": 196, "lock_types": ["frame_lock"], "active": true, "state": "ok", "electric_lock": true, "boardcomputer": 7551150337, "pedelec_battery": null, "battery_pack": null}, {"number": "32775", "bike_type": 71, "lock_types": ["frame_lock"], "active": true, "state": "ok", "electric_lock": true, "boardcomputer": 7551068349, "pedelec_battery": null, "battery_pack": null}, {"number": "32708", "bike_type": 196, "lock_types": ["frame_lock"], "active": true, "state": "ok", "electric_lock": true, "boardcomputer": 7551146862, "pedelec_battery": null, "battery_pack": null}, {"number": "32699", "bike_type": 71, "lock_types": ["frame_lock"], "active": true, "state": "ok", "electric_lock": true, "boardcomputer": 7551015652, "pedelec_battery": null, "battery_pack": null}, {"number": "32692", "bike_type": 71, "lock_types": ["frame_lock"], "active": true, "state": "ok", "electric_lock": true, "boardcomputer": 7551150500, "pedelec_battery": null, "battery_pack": null}, {"number": "32683", "bike_type": 150, "lock_types": ["frame_lock"], "active": true, "state": "ok", "electric_lock": true, "boardcomputer": 7551092407, "pedelec_battery": null, "battery_pack": null}, {"number": "32590", "bike_type": 71, "lock_types": ["frame_lock"], "active": true, "state": "ok", "electric_lock": true, "boardcomputer": 7551125653, "pedelec_battery": null, "battery_pack": null}, {"number": "32542", "bike_type": 196, "lock_types": ["frame_lock"], "active": true, "state": "ok", "electric_lock": true, "boardcomputer": 7551155834, "pedelec_battery": null, "battery_pack": null}, {"number": "32531", "bike_type": 196, "lock_types": ["frame_lock"], "active": true, "state": "ok", "electric_lock": true, "boardcomputer": 7551145320, "pedelec_battery": null, "battery_pack": null}, {"number": "32524", "bike_type": 71, "lock_types": ["frame_lock"], "active": true, "state": "ok", "electric_lock": true, "boardcomputer": 7551126254, "pedelec_battery": null, "battery_pack": null}, {"number": "325011", "bike_type": 181, "lock_types": ["frame_lock"], "active": true, "state": "ok", "electric_lock": true, "boardcomputer": 7551164097, "pedelec_battery": 83, "battery_pack": {"percentage": 83}}, {"number": "325009", "bike_type": 181, "lock_types": ["frame_lock"], "active": true, "state": "ok", "electric_lock": true, "boardcomputer": 7551068347, "pedelec_battery": 79, "battery_pack": {"percentage": 79}}, {"number": "325002", "bike_type": 181, "lock_types": ["frame_lock"], "active": true, "state": "ok", "electric_lock": true, "boardcomputer": 7551063095, "pedelec_battery": 100, "battery_pack": {"percentage": 100}}, {"number": "325019", "bike_type": 181, "lock_types": ["frame_lock"], "active": true, "state": "ok", "electric_lock": true, "boardcomputer": 7551060469, "pedelec_battery": 88, "battery_pack": {"percentage": 88}}, {"number": "35613", "bike_type": 150, "lock_types": ["frame_lock"], "active": true, "state": "ok", "electric_lock": true, "boardcomputer": 7551089482, "pedelec_battery": null, "battery_pack": null}, {"number": "33436", "bike_type": 71, "lock_types": ["frame_lock"], "active": true, "state": "ok", "electric_lock": true, "boardcomputer": 7551120100, "pedelec_battery": null, "battery_pack": null}, {"number": "325026", "bike_type": 196, "lock_types": ["frame_lock"], "active": true, "state": "ok", "electric_lock": true, "boardcomputer": 7551167624, "pedelec_battery": null, "battery_pack": null}], "bike_numbers": ["32948", "32922", "32905", "32795", "32775", "32708", "32699", "32692", "32683", "32590", "32542", "32531", "32524", "325011", "325009", "325002", "325019", "35613", "33436", "325026"], "bike_types": {"71": 7, "150": 4, "181": 4, "196": 5}, "place_type": "18", "rack_locks": false}, {"uid": 15434492, "lat": 48.034708, "lng": 7.863684, "bike": false, "name": "Gundelfinger Stra\u00dfe", "address": "Gundelfinger Stra\u00dfe", "spot": true, "number": 3731, "booked_bikes": 0, "bikes": 7, "bikes_available_to_rent": 7, "bike_racks": 7, "free_racks": 0, "special_racks": 0, "free_special_racks": 0, "maintenance": false, "terminal_type": "sign", "bike_list": [{"number": "32904", "bike_type": 71, "lock_types": ["frame_lock"], "active": true, "state": "ok", "electric_lock": true, "boardcomputer": 7551159783, "pedelec_battery": null, "battery_pack": null}, {"number": "32890", "bike_type": 71, "lock_types": ["frame_lock"], "active": true, "state": "ok", "electric_lock": true, "boardcomputer": 7551152309, "pedelec_battery": null, "battery_pack": null}, {"number": "32813", "bike_type": 71, "lock_types": ["frame_lock"], "active": true, "state": "ok", "electric_lock": true, "boardcomputer": 7551015554, "pedelec_battery": null, "battery_pack": null}, {"number": "32528", "bike_type": 196, "lock_types": ["frame_lock"], "active": true, "state": "ok", "electric_lock": true, "boardcomputer": 7551161036, "pedelec_battery": null, "battery_pack": null}, {"number": "33942", "bike_type": 196, "lock_types": ["frame_lock"], "active": true, "state": "ok", "electric_lock": true, "boardcomputer": 7551168166, "pedelec_battery": null, "battery_pack": null}, {"number": "35666", "bike_type": 196, "lock_types": ["frame_lock"], "active": true, "state": "ok", "electric_lock": true, "boardcomputer": 7551164162, "pedelec_battery": null, "battery_pack": null}, {"number": "325045", "bike_type": 196, "lock_types": ["frame_lock"], "active": true, "state": "ok", "electric_lock": true, "boardcomputer": 7551153667, "pedelec_battery": null, "battery_pack": null}], "bike_numbers": ["32904", "32890", "32813", "32528", "33942", "35666", "325045"], "bike_types": {"71": 3, "196": 4}, "place_type": "0", "rack_locks": false}, {"uid": 15434536, "lat": 48.015373, "lng": 7.854897, "bike": false, "name": "Hornusstra\u00dfe", "address": "Hornusstra\u00dfe 18", "spot": true, "number": 3733, "booked_bikes": 0, "bikes": 0, "bikes_available_to_rent": 0, "bike_racks": 6, "free_racks": 6, "special_racks": 0, "free_special_racks": 0, "maintenance": false, "terminal_type": "sign", "bike_list": [], "bike_numbers": [], "bike_types": {}, "place_type": "0", "rack_locks": false}, {"uid": 15434553, "lat": 48.02793, "lng": 7.84559, "bike": false, "name": "Tullastra\u00dfe/badenova", "address": "Tullastra\u00dfe 72", "spot": true, "number": 3734, "booked_bikes": 0, "bikes": 5, "bikes_available_to_rent": 5, "bike_racks": 10, "free_racks": 5, "special_racks": 0, "free_special_racks": 0, "maintenance": false, "terminal_type": "sign", "bike_list": [{"number": "32970", "bike_type": 71, "lock_types": ["frame_lock"], "active": true, "state": "ok", "electric_lock": true, "boardcomputer": 7551068346, "pedelec_battery": null, "battery_pack": null}, {"number": "32871", "bike_type": 71, "lock_types": ["frame_lock"], "active": true, "state": "ok", "electric_lock": true, "boardcomputer": 7551123725, "pedelec_battery": null, "battery_pack": null}, {"number": "32856", "bike_type": 150, "lock_types": ["frame_lock"], "active": true, "state": "ok", "electric_lock": true, "boardcomputer": 7551092404, "pedelec_battery": null, "battery_pack": null}, {"number": "35675", "bike_type": 71, "lock_types": ["frame_lock"], "active": true, "state": "ok", "electric_lock": true, "boardcomputer": 7551130176, "pedelec_battery": null, "battery_pack": null}, {"number": "35557", "bike_type": 150, "lock_types": ["frame_lock"], "active": true, "state": "ok", "electric_lock": true, "boardcomputer": 7551122501, "pedelec_battery": null, "battery_pack": null}], "bike_numbers": ["32970", "32871", "32856", "35675", "35557"], "bike_types": {"71": 3, "150": 2}, "place_type": "0", "rack_locks": false}, {"uid": 15434576, "lat": 47.991531, "lng": 7.879938, "bike": false, "name": "Sandfangweg/Uni-Sportzentrum", "address": "Sandfangweg/Fritz-Horch-Weg", "spot": true, "number": 3735, "booked_bikes": 0, "bikes": 0, "bikes_available_to_rent": 0, "bike_racks": 7, "free_racks": 7, "special_racks": 0, "free_special_racks": 0, "maintenance": false, "terminal_type": "sign", "bike_list": [], "bike_numbers": [], "bike_types": {}, "place_type": "0", "rack_locks": false}, {"uid": 15434595, "lat": 47.987651, "lng": 7.894461, "bike": false, "name": "Schwarzwaldstra\u00dfe/Strandbad", "address": "Schwarzwaldstra\u00dfe 195", "spot": true, "number": 3736, "booked_bikes": 0, "bikes": 0, "bikes_available_to_rent": 0, "bike_racks": 10, "free_racks": 10, "special_racks": 0, "free_special_racks": 0, "maintenance": false, "terminal_type": "sign", "bike_list": [], "bike_numbers": [], "bike_types": {}, "place_type": "0", "rack_locks": false}, {"uid": 15434619, "lat": 47.98464, "lng": 7.89354, "bike": false, "name": "La\u00dfbergstra\u00dfe (FreloPlus)", "address": "La\u00dfbergstra\u00dfe ggn. Hsnr. 2", "spot": true, "number": 3737, "booked_bikes": 0, "bikes": 5, "bikes_available_to_rent": 5, "bike_racks": 5, "free_racks": 0, "special_racks": 0, "free_special_racks": 0, "maintenance": false, "terminal_type": "sign", "bike_list": [{"number": "32878", "bike_type": 196, "lock_types": ["frame_lock"], "active": true, "state": "ok", "electric_lock": true, "boardcomputer": 7551093264, "pedelec_battery": null, "battery_pack": null}, {"number": "32868", "bike_type": 196, "lock_types": ["frame_lock"], "active": true, "state": "ok", "electric_lock": true, "boardcomputer": 7551155830, "pedelec_battery": null, "battery_pack": null}, {"number": "32726", "bike_type": 71, "lock_types": ["frame_lock"], "active": true, "state": "ok", "electric_lock": true, "boardcomputer": 7551125014, "pedelec_battery": null, "battery_pack": null}, {"number": "33495", "bike_type": 150, "lock_types": ["frame_lock"], "active": true, "state": "ok", "electric_lock": true, "boardcomputer": 7551092437, "pedelec_battery": null, "battery_pack": null}, {"number": "325056", "bike_type": 196, "lock_types": ["frame_lock"], "active": true, "state": "ok", "electric_lock": true, "boardcomputer": 7551153912, "pedelec_battery": null, "battery_pack": null}], "bike_numbers": ["32878", "32868", "32726", "33495", "325056"], "bike_types": {"71": 1, "150": 1, "196": 3}, "place_type": "18", "rack_locks": false}, {"uid": 15434644, "lat": 47.988284, "lng": 7.864905, "bike": false, "name": "Maria-Hilf-Kirche (FreloPlus)", "address": "Schwarzwaldstra\u00dfe/B31", "spot": true, "number": 3738, "booked_bikes": 0, "bikes": 1, "bikes_available_to_rent": 1, "bike_racks": 8, "free_racks": 7, "special_racks": 0, "free_special_racks": 0, "maintenance": false, "terminal_type": "sign", "bike_list": [{"number": "325036", "bike_type": 196, "lock_types": ["frame_lock"], "active": true, "state": "ok", "electric_lock": true, "boardcomputer": 7551153567, "pedelec_battery": null, "battery_pack": null}], "bike_numbers": ["325036"], "bike_types": {"196": 1}, "place_type": "18", "rack_locks": false}, {"uid": 15434659, "lat": 47.989604, "lng": 7.87187, "bike": false, "name": "Hochschule f\u00fcr Musik", "address": "Runzstra\u00dfe", "spot": true, "number": 3739, "booked_bikes": 0, "bikes": 0, "bikes_available_to_rent": 0, "bike_racks": 6, "free_racks": 6, "special_racks": 0, "free_special_racks": 0, "maintenance": true, "terminal_type": "sign", "bike_list": [], "bike_numbers": [], "bike_types": {}, "place_type": "0", "rack_locks": false}, {"uid": 15434682, "lat": 47.984584, "lng": 7.840984, "bike": false, "name": "Lorettobad ", "address": "Mercystra\u00dfe", "spot": true, "number": 3740, "booked_bikes": 0, "bikes": 4, "bikes_available_to_rent": 4, "bike_racks": 8, "free_racks": 4, "special_racks": 0, "free_special_racks": 0, "maintenance": false, "terminal_type": "sign", "bike_list": [{"number": "32925", "bike_type": 71, "lock_types": ["frame_lock"], "active": true, "state": "ok", "electric_lock": true, "boardcomputer": 7551026685, "pedelec_battery": null, "battery_pack": null}, {"number": "32507", "bike_type": 196, "lock_types": ["frame_lock"], "active": true, "state": "ok", "electric_lock": true, "boardcomputer": 7551157209, "pedelec_battery": null, "battery_pack": null}, {"number": "33921", "bike_type": 150, "lock_types": ["frame_lock"], "active": true, "state": "ok", "electric_lock": true, "boardcomputer": 7551058387, "pedelec_battery": null, "battery_pack": null}, {"number": "35682", "bike_type": 71, "lock_types": ["frame_lock"], "active": true, "state": "ok", "electric_lock": true, "boardcomputer": 7551127020, "pedelec_battery": null, "battery_pack": null}], "bike_numbers": ["32925", "32507", "33921", "35682"], "bike_types": {"71": 2, "150": 1, "196": 1}, "place_type": "0", "rack_locks": false}, {"uid": 15434698, "lat": 47.984648, "lng": 7.847861, "bike": false, "name": "Lorettostra\u00dfe", "address": "Urachstra\u00dfe 2", "spot": true, "number": 3741, "booked_bikes": 0, "bikes": 4, "bikes_available_to_rent": 4, "bike_racks": 8, "free_racks": 4, "special_racks": 0, "free_special_racks": 0, "maintenance": false, "terminal_type": "sign", "bike_list": [{"number": "32900", "bike_type": 71, "lock_types": ["frame_lock"], "active": true, "state": "ok", "electric_lock": true, "boardcomputer": 7551126270, "pedelec_battery": null, "battery_pack": null}, {"number": "32651", "bike_type": 71, "lock_types": ["frame_lock"], "active": true, "state": "ok", "electric_lock": true, "boardcomputer": 7551011998, "pedelec_battery": null, "battery_pack": null}, {"number": "32638", "bike_type": 196, "lock_types": ["frame_lock"], "active": true, "state": "ok", "electric_lock": true, "boardcomputer": 7551146064, "pedelec_battery": null, "battery_pack": null}, {"number": "325066", "bike_type": 196, "lock_types": ["frame_lock"], "active": true, "state": "ok", "electric_lock": true, "boardcomputer": 7551153901, "pedelec_battery": null, "battery_pack": null}], "bike_numbers": ["32900", "32651", "32638", "325066"], "bike_types": {"71": 2, "196": 2}, "place_type": "0", "rack_locks": false}, {"uid": 15434720, "lat": 47.989491, "lng": 7.836953, "bike": false, "name": "Heinrich-von-Stephan-Stra\u00dfe", "address": "Heinrich-von-Stephan-Stra\u00dfe 8", "spot": true, "number": 3742, "booked_bikes": 0, "bikes": 5, "bikes_available_to_rent": 5, "bike_racks": 5, "free_racks": 0, "special_racks": 0, "free_special_racks": 0, "maintenance": true, "terminal_type": "sign", "bike_list": [{"number": "32834", "bike_type": 150, "lock_types": ["frame_lock"], "active": true, "state": "ok", "electric_lock": true, "boardcomputer": 7551123722, "pedelec_battery": null, "battery_pack": null}, {"number": "32681", "bike_type": 196, "lock_types": ["frame_lock"], "active": true, "state": "ok", "electric_lock": true, "boardcomputer": 7551092420, "pedelec_battery": null, "battery_pack": null}, {"number": "32522", "bike_type": 150, "lock_types": ["frame_lock"], "active": true, "state": "ok", "electric_lock": true, "boardcomputer": 7551130701, "pedelec_battery": null, "battery_pack": null}, {"number": "32510", "bike_type": 196, "lock_types": ["frame_lock"], "active": true, "state": "ok", "electric_lock": true, "boardcomputer": 7551159683, "pedelec_battery": null, "battery_pack": null}, {"number": "35651", "bike_type": 71, "lock_types": ["frame_lock"], "active": true, "state": "ok", "electric_lock": true, "boardcomputer": 7551162954, "pedelec_battery": null, "battery_pack": null}], "bike_numbers": ["32834", "32681", "32522", "32510", "35651"], "bike_types": {"71": 1, "150": 2, "196": 2}, "place_type": "0", "rack_locks": false}, {"uid": 15434748, "lat": 47.98912, "lng": 7.84772, "bike": false, "name": "Johanneskirche (FreloPlus)", "address": "G\u00fcnterstalstra\u00dfe ggn. Hsnr. 11", "spot": true, "number": 3743, "booked_bikes": 0, "bikes": 0, "bikes_available_to_rent": 0, "bike_racks": 7, "free_racks": 7, "special_racks": 0, "free_special_racks": 0, "maintenance": false, "terminal_type": "sign", "bike_list": [], "bike_numbers": [], "bike_types": {}, "place_type": "18", "rack_locks": false}, {"uid": 15434763, "lat": 47.97998, "lng": 7.83215, "bike": false, "name": "Peter-Thumb-Stra\u00dfe", "address": "Merzhauser Stra\u00dfe 115", "spot": true, "number": 3744, "booked_bikes": 0, "bikes": 2, "bikes_available_to_rent": 2, "bike_racks": 6, "free_racks": 4, "special_racks": 0, "free_special_racks": 0, "maintenance": false, "terminal_type": "sign", "bike_list": [{"number": "32687", "bike_type": 196, "lock_types": ["frame_lock"], "active": true, "state": "ok", "electric_lock": true, "boardcomputer": 7551145921, "pedelec_battery": null, "battery_pack": null}, {"number": "325022", "bike_type": 196, "lock_types": ["frame_lock"], "active": true, "state": "ok", "electric_lock": true, "boardcomputer": 7551167625, "pedelec_battery": null, "battery_pack": null}], "bike_numbers": ["32687", "325022"], "bike_types": {"196": 2}, "place_type": "0", "rack_locks": false}, {"uid": 15434783, "lat": 47.973806, "lng": 7.827925, "bike": false, "name": "Paula-Modersohn-Platz", "address": "Killianstra\u00dfe 2", "spot": true, "number": 3745, "booked_bikes": 0, "bikes": 8, "bikes_available_to_rent": 8, "bike_racks": 0, "free_racks": 0, "special_racks": 0, "free_special_racks": 0, "maintenance": false, "terminal_type": "sign", "bike_list": [{"number": "32990", "bike_type": 71, "lock_types": ["frame_lock"], "active": true, "state": "ok", "electric_lock": true, "boardcomputer": 7551130778, "pedelec_battery": null, "battery_pack": null}, {"number": "32985", "bike_type": 71, "lock_types": ["frame_lock"], "active": true, "state": "ok", "electric_lock": true, "boardcomputer": 7551126716, "pedelec_battery": null, "battery_pack": null}, {"number": "32858", "bike_type": 71, "lock_types": ["frame_lock"], "active": true, "state": "ok", "electric_lock": true, "boardcomputer": 7551126319, "pedelec_battery": null, "battery_pack": null}, {"number": "32713", "bike_type": 71, "lock_types": ["frame_lock"], "active": true, "state": "ok", "electric_lock": true, "boardcomputer": 7551130170, "pedelec_battery": null, "battery_pack": null}, {"number": "32616", "bike_type": 196, "lock_types": ["frame_lock"], "active": true, "state": "ok", "electric_lock": true, "boardcomputer": 7551153740, "pedelec_battery": null, "battery_pack": null}, {"number": "32550", "bike_type": 150, "lock_types": ["frame_lock"], "active": true, "state": "ok", "electric_lock": true, "boardcomputer": 7551164147, "pedelec_battery": null, "battery_pack": null}, {"number": "33922", "bike_type": 71, "lock_types": ["frame_lock"], "active": true, "state": "ok", "electric_lock": true, "boardcomputer": 7551123979, "pedelec_battery": null, "battery_pack": null}, {"number": "35588", "bike_type": 196, "lock_types": ["frame_lock"], "active": true, "state": "ok", "electric_lock": true, "boardcomputer": 7551107587, "pedelec_battery": null, "battery_pack": null}], "bike_numbers": ["32990", "32985", "32858", "32713", "32616", "32550", "33922", "35588"], "bike_types": {"71": 5, "150": 1, "196": 2}, "place_type": "0", "rack_locks": false}, {"uid": 15434805, "lat": 48.004001, "lng": 7.841218, "bike": false, "name": "Friedrich-Ebert-Platz", "address": "Sir-Hans-A.-Krebs-Stra\u00dfe", "spot": true, "number": 3746, "booked_bikes": 0, "bikes": 4, "bikes_available_to_rent": 4, "bike_racks": 8, "free_racks": 4, "special_racks": 0, "free_special_racks": 0, "maintenance": true, "terminal_type": "sign", "bike_list": [{"number": "32585", "bike_type": 71, "lock_types": ["frame_lock"], "active": true, "state": "ok", "electric_lock": true, "boardcomputer": 7551037530, "pedelec_battery": null, "battery_pack": null}, {"number": "35627", "bike_type": 196, "lock_types": ["frame_lock"], "active": true, "state": "ok", "electric_lock": true, "boardcomputer": 7551038472, "pedelec_battery": null, "battery_pack": null}, {"number": "35572", "bike_type": 71, "lock_types": ["frame_lock"], "active": true, "state": "ok", "electric_lock": true, "boardcomputer": 7551123116, "pedelec_battery": null, "battery_pack": null}, {"number": "35565", "bike_type": 71, "lock_types": ["frame_lock"], "active": true, "state": "ok", "electric_lock": true, "boardcomputer": 7551152299, "pedelec_battery": null, "battery_pack": null}], "bike_numbers": ["32585", "35627", "35572", "35565"], "bike_types": {"71": 3, "196": 1}, "place_type": "0", "rack_locks": false}, {"uid": 15434823, "lat": 48.00326, "lng": 7.83207, "bike": false, "name": "Agentur f\u00fcr Arbeit", "address": "Lehener Stra\u00dfe", "spot": true, "number": 3747, "booked_bikes": 0, "bikes": 0, "bikes_available_to_rent": 0, "bike_racks": 6, "free_racks": 6, "special_racks": 0, "free_special_racks": 0, "maintenance": false, "terminal_type": "sign", "bike_list": [], "bike_numbers": [], "bike_types": {}, "place_type": "0", "rack_locks": false}, {"uid": 15434837, "lat": 47.99987, "lng": 7.83207, "bike": false, "name": "Rathaus im St\u00fchlinger (FreloPlus)", "address": "Fehrenbachallee", "spot": true, "number": 3748, "booked_bikes": 0, "bikes": 4, "bikes_available_to_rent": 4, "bike_racks": 16, "free_racks": 12, "special_racks": 0, "free_special_racks": 0, "maintenance": false, "terminal_type": "sign", "bike_list": [{"number": "32942", "bike_type": 150, "lock_types": ["frame_lock"], "active": true, "state": "ok", "electric_lock": false, "boardcomputer": 7551128395, "pedelec_battery": null, "battery_pack": null}, {"number": "32864", "bike_type": 71, "lock_types": ["frame_lock"], "active": true, "state": "ok", "electric_lock": true, "boardcomputer": 7551171027, "pedelec_battery": null, "battery_pack": null}, {"number": "325005", "bike_type": 181, "lock_types": ["frame_lock"], "active": true, "state": "ok", "electric_lock": true, "boardcomputer": 7551154810, "pedelec_battery": 93, "battery_pack": {"percentage": 93}}, {"number": "325032", "bike_type": 196, "lock_types": ["frame_lock"], "active": true, "state": "ok", "electric_lock": true, "boardcomputer": 7551168181, "pedelec_battery": null, "battery_pack": null}], "bike_numbers": ["32942", "32864", "325005", "325032"], "bike_types": {"71": 1, "150": 1, "181": 1, "196": 1}, "place_type": "18", "rack_locks": false}, {"uid": 15434922, "lat": 47.992394, "lng": 7.854083, "bike": false, "name": "Schwabentor", "address": "Schwabentorplatz", "spot": true, "number": 3732, "booked_bikes": 0, "bikes": 2, "bikes_available_to_rent": 2, "bike_racks": 7, "free_racks": 5, "special_racks": 0, "free_special_racks": 0, "maintenance": false, "terminal_type": "sign", "bike_list": [{"number": "32857", "bike_type": 71, "lock_types": ["frame_lock"], "active": true, "state": "ok", "electric_lock": true, "boardcomputer": 7551012041, "pedelec_battery": null, "battery_pack": null}, {"number": "32761", "bike_type": 196, "lock_types": ["frame_lock"], "active": true, "state": "ok", "electric_lock": true, "boardcomputer": 7551132807, "pedelec_battery": null, "battery_pack": null}], "bike_numbers": ["32857", "32761"], "bike_types": {"71": 1, "196": 1}, "place_type": "0", "rack_locks": false}, {"uid": 15435301, "lat": 47.99291, "lng": 7.84702, "bike": false, "name": "Rempartstra\u00dfe/Mensa", "address": "Rempartstra\u00dfe ggn. Hsnr. 10", "spot": true, "number": 3749, "booked_bikes": 0, "bikes": 22, "bikes_available_to_rent": 22, "bike_racks": 12, "free_racks": 0, "special_racks": 0, "free_special_racks": 0, "maintenance": false, "terminal_type": "sign", "bike_list": [{"number": "32979", "bike_type": 196, "lock_types": ["frame_lock"], "active": true, "state": "ok", "electric_lock": true, "boardcomputer": 7551109876, "pedelec_battery": null, "battery_pack": null}, {"number": "32941", "bike_type": 196, "lock_types": ["frame_lock"], "active": true, "state": "ok", "electric_lock": true, "boardcomputer": 7551153879, "pedelec_battery": null, "battery_pack": null}, {"number": "32888", "bike_type": 71, "lock_types": ["frame_lock"], "active": true, "state": "ok", "electric_lock": true, "boardcomputer": 7551125780, "pedelec_battery": null, "battery_pack": null}, {"number": "32825", "bike_type": 196, "lock_types": ["frame_lock"], "active": true, "state": "ok", "electric_lock": true, "boardcomputer": 7551093258, "pedelec_battery": null, "battery_pack": null}, {"number": "32768", "bike_type": 71, "lock_types": ["frame_lock"], "active": true, "state": "ok", "electric_lock": true, "boardcomputer": 7551123817, "pedelec_battery": null, "battery_pack": null}, {"number": "32695", "bike_type": 71, "lock_types": ["frame_lock"], "active": true, "state": "ok", "electric_lock": true, "boardcomputer": 7551124937, "pedelec_battery": null, "battery_pack": null}, {"number": "32685", "bike_type": 71, "lock_types": ["frame_lock"], "active": true, "state": "ok", "electric_lock": true, "boardcomputer": 7551130458, "pedelec_battery": null, "battery_pack": null}, {"number": "32662", "bike_type": 196, "lock_types": ["frame_lock"], "active": true, "state": "ok", "electric_lock": true, "boardcomputer": 7551160627, "pedelec_battery": null, "battery_pack": null}, {"number": "32647", "bike_type": 150, "lock_types": ["frame_lock"], "active": true, "state": "ok", "electric_lock": true, "boardcomputer": 7551124656, "pedelec_battery": null, "battery_pack": null}, {"number": "32606", "bike_type": 196, "lock_types": ["frame_lock"], "active": true, "state": "ok", "electric_lock": true, "boardcomputer": 7551125241, "pedelec_battery": null, "battery_pack": null}, {"number": "32579", "bike_type": 196, "lock_types": ["frame_lock"], "active": true, "state": "ok", "electric_lock": true, "boardcomputer": 7551116632, "pedelec_battery": null, "battery_pack": null}, {"number": "32543", "bike_type": 150, "lock_types": ["frame_lock"], "active": true, "state": "ok", "electric_lock": true, "boardcomputer": 7551038968, "pedelec_battery": null, "battery_pack": null}, {"number": "32523", "bike_type": 71, "lock_types": ["frame_lock"], "active": true, "state": "ok", "electric_lock": true, "boardcomputer": 7551130716, "pedelec_battery": null, "battery_pack": null}, {"number": "32518", "bike_type": 71, "lock_types": ["frame_lock"], "active": true, "state": "ok", "electric_lock": true, "boardcomputer": 7551164142, "pedelec_battery": null, "battery_pack": null}, {"number": "32511", "bike_type": 150, "lock_types": ["frame_lock"], "active": true, "state": "ok", "electric_lock": true, "boardcomputer": 7551037917, "pedelec_battery": null, "battery_pack": null}, {"number": "32502", "bike_type": 150, "lock_types": ["frame_lock"], "active": true, "state": "ok", "electric_lock": true, "boardcomputer": 7551038681, "pedelec_battery": null, "battery_pack": null}, {"number": "33901", "bike_type": 196, "lock_types": ["frame_lock"], "active": true, "state": "ok", "electric_lock": true, "boardcomputer": 7551170367, "pedelec_battery": null, "battery_pack": null}, {"number": "35632", "bike_type": 150, "lock_types": ["frame_lock"], "active": true, "state": "ok", "electric_lock": true, "boardcomputer": 7551089487, "pedelec_battery": null, "battery_pack": null}, {"number": "35660", "bike_type": 196, "lock_types": ["frame_lock"], "active": true, "state": "ok", "electric_lock": true, "boardcomputer": 7551092426, "pedelec_battery": null, "battery_pack": null}, {"number": "35573", "bike_type": 71, "lock_types": ["frame_lock"], "active": true, "state": "ok", "electric_lock": true, "boardcomputer": 7551122190, "pedelec_battery": null, "battery_pack": null}, {"number": "35550", "bike_type": 71, "lock_types": ["frame_lock"], "active": true, "state": "ok", "electric_lock": true, "boardcomputer": 7551121149, "pedelec_battery": null, "battery_pack": null}, {"number": "325035", "bike_type": 150, "lock_types": ["frame_lock"], "active": true, "state": "ok", "electric_lock": true, "boardcomputer": 7551153545, "pedelec_battery": null, "battery_pack": null}], "bike_numbers": ["32979", "32941", "32888", "32825", "32768", "32695", "32685", "32662", "32647", "32606", "32579", "32543", "32523", "32518", "32511", "32502", "33901", "35632", "35660", "35573", "35550", "325035"], "bike_types": {"71": 8, "150": 6, "196": 8}, "place_type": "0", "rack_locks": false}, {"uid": 15435973, "lat": 47.995016, "lng": 7.843514, "bike": false, "name": "Moltkestra\u00dfe", "address": "Moltkestra\u00dfe/Sedanstra\u00dfe", "spot": true, "number": 3674, "booked_bikes": 0, "bikes": 0, "bikes_available_to_rent": 0, "bike_racks": 6, "free_racks": 5, "special_racks": 0, "free_special_racks": 0, "maintenance": false, "terminal_type": "sign", "bike_list": [], "bike_numbers": [], "bike_types": {}, "place_type": "0", "rack_locks": false}, {"uid": 15857436, "lat": 47.9961, "lng": 7.84616, "bike": false, "name": "Rotteckring (FreloPlus)", "address": "Albertstra\u00dfe", "spot": true, "number": 3692, "booked_bikes": 0, "bikes": 6, "bikes_available_to_rent": 6, "bike_racks": 11, "free_racks": 5, "special_racks": 0, "free_special_racks": 0, "maintenance": true, "terminal_type": "7inch", "bike_list": [{"number": "32765", "bike_type": 196, "lock_types": ["frame_lock"], "active": true, "state": "ok", "electric_lock": true, "boardcomputer": 7551170359, "pedelec_battery": null, "battery_pack": null}, {"number": "32675", "bike_type": 196, "lock_types": ["frame_lock"], "active": true, "state": "ok", "electric_lock": true, "boardcomputer": 7551164161, "pedelec_battery": null, "battery_pack": null}, {"number": "32558", "bike_type": 150, "lock_types": ["frame_lock"], "active": true, "state": "ok", "electric_lock": true, "boardcomputer": 7551052596, "pedelec_battery": null, "battery_pack": null}, {"number": "325014", "bike_type": 181, "lock_types": ["frame_lock"], "active": true, "state": "ok", "electric_lock": true, "boardcomputer": 7551059024, "pedelec_battery": 100, "battery_pack": {"percentage": 100}}, {"number": "325001", "bike_type": 181, "lock_types": ["frame_lock"], "active": true, "state": "ok", "electric_lock": true, "boardcomputer": 7551093259, "pedelec_battery": 83, "battery_pack": {"percentage": 83}}, {"number": "35616", "bike_type": 196, "lock_types": ["frame_lock"], "active": true, "state": "ok", "electric_lock": true, "boardcomputer": 7551114107, "pedelec_battery": null, "battery_pack": null}], "bike_numbers": ["32765", "32675", "32558", "325014", "325001", "35616"], "bike_types": {"150": 1, "181": 2, "196": 3}, "place_type": "18", "rack_locks": false}, {"uid": 15857462, "lat": 48.01267, "lng": 7.84964, "bike": false, "name": "G\u00fcterhallenstra\u00dfe", "address": null, "spot": true, "number": 3693, "booked_bikes": 0, "bikes": 11, "bikes_available_to_rent": 11, "bike_racks": 7, "free_racks": 0, "special_racks": 0, "free_special_racks": 0, "maintenance": false, "terminal_type": "7inch", "bike_list": [{"number": "32873", "bike_type": 71, "lock_types": ["frame_lock"], "active": true, "state": "ok", "electric_lock": true, "boardcomputer": 7551144291, "pedelec_battery": null, "battery_pack": null}, {"number": "32836", "bike_type": 71, "lock_types": ["frame_lock"], "active": true, "state": "ok", "electric_lock": true, "boardcomputer": 7551020795, "pedelec_battery": null, "battery_pack": null}, {"number": "32799", "bike_type": 150, "lock_types": ["frame_lock"], "active": true, "state": "ok", "electric_lock": true, "boardcomputer": 7551138151, "pedelec_battery": null, "battery_pack": null}, {"number": "32690", "bike_type": 196, "lock_types": ["frame_lock"], "active": true, "state": "ok", "electric_lock": true, "boardcomputer": 7551131034, "pedelec_battery": null, "battery_pack": null}, {"number": "32680", "bike_type": 71, "lock_types": ["frame_lock"], "active": true, "state": "ok", "electric_lock": true, "boardcomputer": 7551152310, "pedelec_battery": null, "battery_pack": null}, {"number": "32520", "bike_type": 71, "lock_types": ["frame_lock"], "active": true, "state": "ok", "electric_lock": true, "boardcomputer": 7551126336, "pedelec_battery": null, "battery_pack": null}, {"number": "33910", "bike_type": 196, "lock_types": ["frame_lock"], "active": true, "state": "ok", "electric_lock": true, "boardcomputer": 7551146938, "pedelec_battery": null, "battery_pack": null}, {"number": "35619", "bike_type": 150, "lock_types": ["frame_lock"], "active": true, "state": "ok", "electric_lock": true, "boardcomputer": 7551089682, "pedelec_battery": null, "battery_pack": null}, {"number": "35558", "bike_type": 196, "lock_types": ["frame_lock"], "active": true, "state": "ok", "electric_lock": true, "boardcomputer": 7551120739, "pedelec_battery": null, "battery_pack": null}, {"number": "325067", "bike_type": 196, "lock_types": ["frame_lock"], "active": true, "state": "ok", "electric_lock": true, "boardcomputer": 7551167172, "pedelec_battery": null, "battery_pack": null}, {"number": "325034", "bike_type": 196, "lock_types": ["frame_lock"], "active": true, "state": "ok", "electric_lock": true, "boardcomputer": 7551167621, "pedelec_battery": null, "battery_pack": null}], "bike_numbers": ["32873", "32836", "32799", "32690", "32680", "32520", "33910", "35619", "35558", "325067", "325034"], "bike_types": {"71": 4, "150": 2, "196": 5}, "place_type": "0", "rack_locks": false}, {"uid": 15857499, "lat": 47.9761, "lng": 7.8284, "bike": false, "name": "Studentendorf Vauban (FreloPlus)", "address": null, "spot": true, "number": 3699, "booked_bikes": 0, "bikes": 5, "bikes_available_to_rent": 5, "bike_racks": 12, "free_racks": 7, "special_racks": 0, "free_special_racks": 0, "maintenance": false, "terminal_type": "7inch", "bike_list": [{"number": "32814", "bike_type": 196, "lock_types": ["frame_lock"], "active": true, "state": "ok", "electric_lock": true, "boardcomputer": 7551164165, "pedelec_battery": null, "battery_pack": null}, {"number": "32655", "bike_type": 71, "lock_types": ["frame_lock"], "active": true, "state": "ok", "electric_lock": true, "boardcomputer": 7551135767, "pedelec_battery": null, "battery_pack": null}, {"number": "325006", "bike_type": 181, "lock_types": ["frame_lock"], "active": true, "state": "ok", "electric_lock": true, "boardcomputer": 7551059257, "pedelec_battery": 88, "battery_pack": {"percentage": 88}}, {"number": "35670", "bike_type": 150, "lock_types": ["frame_lock"], "active": true, "state": "ok", "electric_lock": true, "boardcomputer": 7551089966, "pedelec_battery": null, "battery_pack": null}, {"number": "33438", "bike_type": 150, "lock_types": ["frame_lock"], "active": true, "state": "ok", "electric_lock": true, "boardcomputer": 7551123372, "pedelec_battery": null, "battery_pack": null}], "bike_numbers": ["32814", "32655", "325006", "35670", "33438"], "bike_types": {"71": 1, "150": 2, "181": 1, "196": 1}, "place_type": "18", "rack_locks": false}, {"uid": 15858277, "lat": 47.98272, "lng": 7.85402, "bike": false, "name": "Bahnhof Wiehre", "address": null, "spot": true, "number": 3696, "booked_bikes": 0, "bikes": 2, "bikes_available_to_rent": 2, "bike_racks": 8, "free_racks": 6, "special_racks": 0, "free_special_racks": 0, "maintenance": false, "terminal_type": "7inch", "bike_list": [{"number": "33936", "bike_type": 196, "lock_types": ["frame_lock"], "active": true, "state": "ok", "electric_lock": true, "boardcomputer": 7551092397, "pedelec_battery": null, "battery_pack": null}, {"number": "35676", "bike_type": 196, "lock_types": ["frame_lock"], "active": true, "state": "ok", "electric_lock": true, "boardcomputer": 7551168089, "pedelec_battery": null, "battery_pack": null}], "bike_numbers": ["33936", "35676"], "bike_types": {"196": 2}, "place_type": "0", "rack_locks": false}, {"uid": 15858337, "lat": 47.991982, "lng": 7.850421, "bike": false, "name": "Holzmarkt", "address": null, "spot": true, "number": 3697, "booked_bikes": 0, "bikes": 3, "bikes_available_to_rent": 3, "bike_racks": 10, "free_racks": 7, "special_racks": 0, "free_special_racks": 0, "maintenance": false, "terminal_type": "sign", "bike_list": [{"number": "32963", "bike_type": 196, "lock_types": ["frame_lock"], "active": true, "state": "ok", "electric_lock": true, "boardcomputer": 7551093281, "pedelec_battery": null, "battery_pack": null}, {"number": "33920", "bike_type": 196, "lock_types": ["frame_lock"], "active": true, "state": "ok", "electric_lock": true, "boardcomputer": 7551159034, "pedelec_battery": null, "battery_pack": null}, {"number": "35683", "bike_type": 71, "lock_types": ["frame_lock"], "active": true, "state": "ok", "electric_lock": true, "boardcomputer": 7551125904, "pedelec_battery": null, "battery_pack": null}], "bike_numbers": ["32963", "33920", "35683"], "bike_types": {"71": 1, "196": 2}, "place_type": "0", "rack_locks": false}, {"uid": 16044954, "lat": 48.024154, "lng": 7.862944, "bike": false, "name": "Bahnhof Z\u00e4hringen", "address": "7.85486", "spot": true, "number": 3655, "booked_bikes": 0, "bikes": 2, "bikes_available_to_rent": 2, "bike_racks": 6, "free_racks": 4, "special_racks": 0, "free_special_racks": 0, "maintenance": false, "terminal_type": "sign", "bike_list": [{"number": "32698", "bike_type": 71, "lock_types": ["frame_lock"], "active": true, "state": "ok", "electric_lock": true, "boardcomputer": 7551124946, "pedelec_battery": null, "battery_pack": null}, {"number": "35677", "bike_type": 150, "lock_types": ["frame_lock"], "active": true, "state": "ok", "electric_lock": true, "boardcomputer": 7551135768, "pedelec_battery": null, "battery_pack": null}], "bike_numbers": ["32698", "35677"], "bike_types": {"71": 1, "150": 1}, "place_type": "0", "rack_locks": false}, {"uid": 16045234, "lat": 48.005842, "lng": 7.834094, "bike": false, "name": "Killianstra\u00dfe", "address": null, "spot": true, "number": 3656, "booked_bikes": 0, "bikes": 3, "bikes_available_to_rent": 3, "bike_racks": 10, "free_racks": 7, "special_racks": 0, "free_special_racks": 0, "maintenance": false, "terminal_type": "7inch", "bike_list": [{"number": "32938", "bike_type": 196, "lock_types": ["frame_lock"], "active": true, "state": "ok", "electric_lock": true, "boardcomputer": 7551134490, "pedelec_battery": null, "battery_pack": null}, {"number": "32823", "bike_type": 71, "lock_types": ["frame_lock"], "active": true, "state": "ok", "electric_lock": true, "boardcomputer": 7551150340, "pedelec_battery": null, "battery_pack": null}, {"number": "32578", "bike_type": 150, "lock_types": ["frame_lock"], "active": true, "state": "ok", "electric_lock": true, "boardcomputer": 7551132473, "pedelec_battery": null, "battery_pack": null}], "bike_numbers": ["32938", "32823", "32578"], "bike_types": {"71": 1, "150": 1, "196": 1}, "place_type": "0", "rack_locks": false}, {"uid": 16045295, "lat": 47.99764, "lng": 7.839893, "bike": false, "name": "Hauptbahnhof West", "address": null, "spot": true, "number": 3698, "booked_bikes": 0, "bikes": 2, "bikes_available_to_rent": 2, "bike_racks": 6, "free_racks": 4, "special_racks": 0, "free_special_racks": 0, "maintenance": true, "terminal_type": "7inch", "bike_list": [{"number": "32806", "bike_type": 150, "lock_types": ["frame_lock"], "active": true, "state": "ok", "electric_lock": true, "boardcomputer": 7551150334, "pedelec_battery": null, "battery_pack": null}, {"number": "32626", "bike_type": 196, "lock_types": ["frame_lock"], "active": true, "state": "ok", "electric_lock": true, "boardcomputer": 7551153641, "pedelec_battery": null, "battery_pack": null}], "bike_numbers": ["32806", "32626"], "bike_types": {"150": 1, "196": 1}, "place_type": "0", "rack_locks": false}, {"uid": 16045395, "lat": 47.997058, "lng": 7.834818, "bike": false, "name": "Engelbergerstra\u00dfe", "address": null, "spot": true, "number": 3658, "booked_bikes": 0, "bikes": 4, "bikes_available_to_rent": 4, "bike_racks": 8, "free_racks": 4, "special_racks": 0, "free_special_racks": 0, "maintenance": true, "terminal_type": "sign", "bike_list": [{"number": "32908", "bike_type": 71, "lock_types": ["frame_lock"], "active": true, "state": "ok", "electric_lock": true, "boardcomputer": 7551127018, "pedelec_battery": null, "battery_pack": null}, {"number": "32766", "bike_type": 196, "lock_types": ["frame_lock"], "active": true, "state": "ok", "electric_lock": true, "boardcomputer": 7551164090, "pedelec_battery": null, "battery_pack": null}, {"number": "32544", "bike_type": 150, "lock_types": ["frame_lock"], "active": true, "state": "ok", "electric_lock": true, "boardcomputer": 7551150499, "pedelec_battery": null, "battery_pack": null}, {"number": "33457", "bike_type": 71, "lock_types": ["frame_lock"], "active": true, "state": "ok", "electric_lock": true, "boardcomputer": 7551126367, "pedelec_battery": null, "battery_pack": null}], "bike_numbers": ["32908", "32766", "32544", "33457"], "bike_types": {"71": 2, "150": 1, "196": 1}, "place_type": "0", "rack_locks": false}, {"uid": 16045533, "lat": 47.999714, "lng": 7.842265, "bike": false, "name": "Lehener Stra\u00dfe/Wentzingerstra\u00dfe (FreloPlus)", "address": null, "spot": true, "number": 3659, "booked_bikes": 0, "bikes": 1, "bikes_available_to_rent": 1, "bike_racks": 8, "free_racks": 7, "special_racks": 0, "free_special_racks": 0, "maintenance": false, "terminal_type": "sign", "bike_list": [{"number": "35680", "bike_type": 150, "lock_types": ["frame_lock"], "active": true, "state": "ok", "electric_lock": true, "boardcomputer": 7551158978, "pedelec_battery": null, "battery_pack": null}], "bike_numbers": ["35680"], "bike_types": {"150": 1}, "place_type": "18", "rack_locks": false}, {"uid": 19100030, "lat": 47.988072, "lng": 7.873674, "bike": false, "name": "Schwarzwaldstra\u00dfe/Musikhochschule", "address": null, "spot": true, "number": 3660, "booked_bikes": 0, "bikes": 0, "bikes_available_to_rent": 0, "bike_racks": 10, "free_racks": 10, "special_racks": 0, "free_special_racks": 0, "maintenance": false, "terminal_type": "sign", "bike_list": [], "bike_numbers": [], "bike_types": {}, "place_type": "0", "rack_locks": false}, {"uid": 19100043, "lat": 48.021908, "lng": 7.850236, "bike": false, "name": "Tullastra\u00dfe/Engesserstra\u00dfe", "address": null, "spot": true, "number": 3661, "booked_bikes": 0, "bikes": 7, "bikes_available_to_rent": 7, "bike_racks": 0, "free_racks": 0, "special_racks": 0, "free_special_racks": 0, "maintenance": false, "terminal_type": "", "bike_list": [{"number": "32988", "bike_type": 150, "lock_types": ["frame_lock"], "active": true, "state": "ok", "electric_lock": true, "boardcomputer": 7551126335, "pedelec_battery": null, "battery_pack": null}, {"number": "32981", "bike_type": 196, "lock_types": ["frame_lock"], "active": true, "state": "ok", "electric_lock": true, "boardcomputer": 7551142185, "pedelec_battery": null, "battery_pack": null}, {"number": "32907", "bike_type": 71, "lock_types": ["frame_lock"], "active": true, "state": "ok", "electric_lock": true, "boardcomputer": 7551126269, "pedelec_battery": null, "battery_pack": null}, {"number": "32644", "bike_type": 196, "lock_types": ["frame_lock"], "active": true, "state": "ok", "electric_lock": true, "boardcomputer": 7551147243, "pedelec_battery": null, "battery_pack": null}, {"number": "32611", "bike_type": 196, "lock_types": ["frame_lock"], "active": true, "state": "ok", "electric_lock": true, "boardcomputer": 7551164138, "pedelec_battery": null, "battery_pack": null}, {"number": "33492", "bike_type": 71, "lock_types": ["frame_lock"], "active": true, "state": "ok", "electric_lock": true, "boardcomputer": 7551125124, "pedelec_battery": null, "battery_pack": null}, {"number": "35647", "bike_type": 150, "lock_types": ["frame_lock"], "active": true, "state": "ok", "electric_lock": true, "boardcomputer": 7551089841, "pedelec_battery": null, "battery_pack": null}], "bike_numbers": ["32988", "32981", "32907", "32644", "32611", "33492", "35647"], "bike_types": {"71": 2, "150": 2, "196": 3}, "place_type": "0", "rack_locks": false}, {"uid": 19100052, "lat": 48.043359, "lng": 7.873807, "bike": false, "name": "Gundelfingen - Bahnhof", "address": null, "spot": true, "number": 3663, "booked_bikes": 0, "bikes": 3, "bikes_available_to_rent": 3, "bike_racks": 6, "free_racks": 3, "special_racks": 0, "free_special_racks": 0, "maintenance": false, "terminal_type": "sign", "bike_list": [{"number": "32923", "bike_type": 71, "lock_types": ["frame_lock"], "active": true, "state": "ok", "electric_lock": true, "boardcomputer": 7551123986, "pedelec_battery": null, "battery_pack": null}, {"number": "32913", "bike_type": 150, "lock_types": ["frame_lock"], "active": true, "state": "ok", "electric_lock": true, "boardcomputer": 7551153620, "pedelec_battery": null, "battery_pack": null}, {"number": "35615", "bike_type": 150, "lock_types": ["frame_lock"], "active": true, "state": "ok", "electric_lock": true, "boardcomputer": 7551089965, "pedelec_battery": null, "battery_pack": null}], "bike_numbers": ["32923", "32913", "35615"], "bike_types": {"71": 1, "150": 2}, "place_type": "0", "rack_locks": false}, {"uid": 19100064, "lat": 48.042793, "lng": 7.866093, "bike": false, "name": "Gundelfingen - Rathaus", "address": null, "spot": true, "number": 3662, "booked_bikes": 0, "bikes": 4, "bikes_available_to_rent": 4, "bike_racks": 6, "free_racks": 2, "special_racks": 0, "free_special_racks": 0, "maintenance": false, "terminal_type": "sign", "bike_list": [{"number": "32820", "bike_type": 71, "lock_types": ["frame_lock"], "active": true, "state": "ok", "electric_lock": true, "boardcomputer": 7551126249, "pedelec_battery": null, "battery_pack": null}, {"number": "32787", "bike_type": 150, "lock_types": ["frame_lock"], "active": true, "state": "ok", "electric_lock": true, "boardcomputer": 7551019380, "pedelec_battery": null, "battery_pack": null}, {"number": "35611", "bike_type": 196, "lock_types": ["frame_lock"], "active": true, "state": "ok", "electric_lock": true, "boardcomputer": 7551002633, "pedelec_battery": null, "battery_pack": null}, {"number": "325049", "bike_type": 196, "lock_types": ["frame_lock"], "active": true, "state": "ok", "electric_lock": true, "boardcomputer": 7551167166, "pedelec_battery": null, "battery_pack": null}], "bike_numbers": ["32820", "32787", "35611", "325049"], "bike_types": {"71": 1, "150": 1, "196": 2}, "place_type": "0", "rack_locks": false}, {"uid": 21733873, "lat": 47.992361, "lng": 7.797626, "bike": false, "name": "VAG-Zentrum", "address": null, "spot": true, "number": 3647, "booked_bikes": 0, "bikes": 8, "bikes_available_to_rent": 8, "bike_racks": 5, "free_racks": 0, "special_racks": 0, "free_special_racks": 0, "maintenance": false, "terminal_type": "sign", "bike_list": [{"number": "32876", "bike_type": 71, "lock_types": ["frame_lock"], "active": true, "state": "ok", "electric_lock": true, "boardcomputer": 7551038666, "pedelec_battery": null, "battery_pack": null}, {"number": "32848", "bike_type": 71, "lock_types": ["frame_lock"], "active": true, "state": "ok", "electric_lock": true, "boardcomputer": 7551168162, "pedelec_battery": null, "battery_pack": null}, {"number": "32843", "bike_type": 71, "lock_types": ["frame_lock"], "active": true, "state": "ok", "electric_lock": true, "boardcomputer": 7551160624, "pedelec_battery": null, "battery_pack": null}, {"number": "32660", "bike_type": 71, "lock_types": ["frame_lock"], "active": true, "state": "ok", "electric_lock": true, "boardcomputer": 7551012381, "pedelec_battery": null, "battery_pack": null}, {"number": "32610", "bike_type": 71, "lock_types": ["frame_lock"], "active": true, "state": "ok", "electric_lock": true, "boardcomputer": 7551015451, "pedelec_battery": null, "battery_pack": null}, {"number": "32530", "bike_type": 150, "lock_types": ["frame_lock"], "active": true, "state": "ok", "electric_lock": true, "boardcomputer": 7551037692, "pedelec_battery": null, "battery_pack": null}, {"number": "33928", "bike_type": 196, "lock_types": ["frame_lock"], "active": true, "state": "ok", "electric_lock": true, "boardcomputer": 7551125072, "pedelec_battery": null, "battery_pack": null}, {"number": "35654", "bike_type": 150, "lock_types": ["frame_lock"], "active": true, "state": "ok", "electric_lock": true, "boardcomputer": 7551159028, "pedelec_battery": null, "battery_pack": null}], "bike_numbers": ["32876", "32848", "32843", "32660", "32610", "32530", "33928", "35654"], "bike_types": {"71": 5, "150": 2, "196": 1}, "place_type": "0", "rack_locks": false}, {"uid": 29796981, "lat": 47.967604, "lng": 7.695682, "bike": false, "name": "Windh\u00e4uslegasse", "address": null, "spot": true, "number": 36500, "booked_bikes": 0, "bikes": 2, "bikes_available_to_rent": 2, "bike_racks": 6, "free_racks": 4, "special_racks": 0, "free_special_racks": 0, "maintenance": false, "terminal_type": "sign", "bike_list": [{"number": "35598", "bike_type": 71, "lock_types": ["frame_lock"], "active": true, "state": "ok", "electric_lock": true, "boardcomputer": 7551108326, "pedelec_battery": null, "battery_pack": null}, {"number": "325039", "bike_type": 196, "lock_types": ["frame_lock"], "active": true, "state": "ok", "electric_lock": true, "boardcomputer": 7551153546, "pedelec_battery": null, "battery_pack": null}], "bike_numbers": ["35598", "325039"], "bike_types": {"71": 1, "196": 1}, "place_type": "0", "rack_locks": false}, {"uid": 29796985, "lat": 47.98273, "lng": 7.718995, "bike": false, "name": "Im Maierbr\u00fchl", "address": null, "spot": true, "number": 36501, "booked_bikes": 0, "bikes": 4, "bikes_available_to_rent": 4, "bike_racks": 0, "free_racks": 0, "special_racks": 0, "free_special_racks": 0, "maintenance": false, "terminal_type": "sign", "bike_list": [{"number": "32951", "bike_type": 71, "lock_types": ["frame_lock"], "active": true, "state": "ok", "electric_lock": true, "boardcomputer": 7551152534, "pedelec_battery": null, "battery_pack": null}, {"number": "32774", "bike_type": 196, "lock_types": ["frame_lock"], "active": true, "state": "ok", "electric_lock": true, "boardcomputer": 7551170254, "pedelec_battery": null, "battery_pack": null}, {"number": "35570", "bike_type": 71, "lock_types": ["frame_lock"], "active": true, "state": "ok", "electric_lock": true, "boardcomputer": 7551120877, "pedelec_battery": null, "battery_pack": null}, {"number": "33454", "bike_type": 71, "lock_types": ["frame_lock"], "active": true, "state": "ok", "electric_lock": true, "boardcomputer": 7551124308, "pedelec_battery": null, "battery_pack": null}], "bike_numbers": ["32951", "32774", "35570", "33454"], "bike_types": {"71": 3, "196": 1}, "place_type": "0", "rack_locks": false}, {"uid": 29796991, "lat": 48.00011, "lng": 7.715471, "bike": false, "name": "Opfingen - Rathaus", "address": null, "spot": true, "number": 36502, "booked_bikes": 0, "bikes": 6, "bikes_available_to_rent": 6, "bike_racks": 0, "free_racks": 0, "special_racks": 0, "free_special_racks": 0, "maintenance": false, "terminal_type": "sign", "bike_list": [{"number": "32949", "bike_type": 71, "lock_types": ["frame_lock"], "active": true, "state": "ok", "electric_lock": true, "boardcomputer": 7551150135, "pedelec_battery": null, "battery_pack": null}, {"number": "32661", "bike_type": 71, "lock_types": ["frame_lock"], "active": true, "state": "ok", "electric_lock": true, "boardcomputer": 7551162961, "pedelec_battery": null, "battery_pack": null}, {"number": "32629", "bike_type": 150, "lock_types": ["frame_lock"], "active": true, "state": "ok", "electric_lock": true, "boardcomputer": 7551016177, "pedelec_battery": null, "battery_pack": null}, {"number": "33925", "bike_type": 150, "lock_types": ["frame_lock"], "active": true, "state": "ok", "electric_lock": true, "boardcomputer": 7551092606, "pedelec_battery": null, "battery_pack": null}, {"number": "35637", "bike_type": 150, "lock_types": ["frame_lock"], "active": true, "state": "ok", "electric_lock": true, "boardcomputer": 7551171021, "pedelec_battery": null, "battery_pack": null}, {"number": "35623", "bike_type": 150, "lock_types": ["frame_lock"], "active": true, "state": "ok", "electric_lock": true, "boardcomputer": 7551089614, "pedelec_battery": null, "battery_pack": null}], "bike_numbers": ["32949", "32661", "32629", "33925", "35637", "35623"], "bike_types": {"71": 2, "150": 4}, "place_type": "0", "rack_locks": false}, {"uid": 29796996, "lat": 48.033345, "lng": 7.875808, "bike": false, "name": "Gundelfingen - Wildtal", "address": null, "spot": true, "number": 36503, "booked_bikes": 0, "bikes": 6, "bikes_available_to_rent": 6, "bike_racks": 0, "free_racks": 0, "special_racks": 0, "free_special_racks": 0, "maintenance": false, "terminal_type": "sign", "bike_list": [{"number": "32959", "bike_type": 71, "lock_types": ["frame_lock"], "active": true, "state": "ok", "electric_lock": true, "boardcomputer": 7551058400, "pedelec_battery": null, "battery_pack": null}, {"number": "32854", "bike_type": 196, "lock_types": ["frame_lock"], "active": true, "state": "ok", "electric_lock": true, "boardcomputer": 7551153742, "pedelec_battery": null, "battery_pack": null}, {"number": "32780", "bike_type": 71, "lock_types": ["frame_lock"], "active": true, "state": "ok", "electric_lock": true, "boardcomputer": 7551155939, "pedelec_battery": null, "battery_pack": null}, {"number": "32744", "bike_type": 71, "lock_types": ["frame_lock"], "active": true, "state": "ok", "electric_lock": true, "boardcomputer": 7551128445, "pedelec_battery": null, "battery_pack": null}, {"number": "35586", "bike_type": 150, "lock_types": ["frame_lock"], "active": true, "state": "ok", "electric_lock": true, "boardcomputer": 7551122169, "pedelec_battery": null, "battery_pack": null}, {"number": "35577", "bike_type": 71, "lock_types": ["frame_lock"], "active": true, "state": "ok", "electric_lock": true, "boardcomputer": 7551160697, "pedelec_battery": null, "battery_pack": null}], "bike_numbers": ["32959", "32854", "32780", "32744", "35586", "35577"], "bike_types": {"71": 4, "150": 1, "196": 1}, "place_type": "0", "rack_locks": false}, {"uid": 29796997, "lat": 48.023497, "lng": 7.724102, "bike": false, "name": "Schutternstra\u00dfe", "address": null, "spot": true, "number": 36504, "booked_bikes": 0, "bikes": 7, "bikes_available_to_rent": 7, "bike_racks": 0, "free_racks": 0, "special_racks": 0, "free_special_racks": 0, "maintenance": false, "terminal_type": "sign", "bike_list": [{"number": "32987", "bike_type": 71, "lock_types": ["frame_lock"], "active": true, "state": "ok", "electric_lock": true, "boardcomputer": 7551151154, "pedelec_battery": null, "battery_pack": null}, {"number": "32818", "bike_type": 196, "lock_types": ["frame_lock"], "active": true, "state": "ok", "electric_lock": true, "boardcomputer": 7551168167, "pedelec_battery": null, "battery_pack": null}, {"number": "32802", "bike_type": 196, "lock_types": ["frame_lock"], "active": true, "state": "ok", "electric_lock": true, "boardcomputer": 7551168080, "pedelec_battery": null, "battery_pack": null}, {"number": "32754", "bike_type": 71, "lock_types": ["frame_lock"], "active": true, "state": "ok", "electric_lock": true, "boardcomputer": 7551160633, "pedelec_battery": null, "battery_pack": null}, {"number": "32556", "bike_type": 71, "lock_types": ["frame_lock"], "active": true, "state": "ok", "electric_lock": true, "boardcomputer": 7551125779, "pedelec_battery": null, "battery_pack": null}, {"number": "35661", "bike_type": 196, "lock_types": ["frame_lock"], "active": true, "state": "ok", "electric_lock": true, "boardcomputer": 7551155265, "pedelec_battery": null, "battery_pack": null}, {"number": "35559", "bike_type": 196, "lock_types": ["frame_lock"], "active": true, "state": "ok", "electric_lock": true, "boardcomputer": 7551168163, "pedelec_battery": null, "battery_pack": null}], "bike_numbers": ["32987", "32818", "32802", "32754", "32556", "35661", "35559"], "bike_types": {"71": 3, "196": 4}, "place_type": "0", "rack_locks": false}, {"uid": 29796999, "lat": 48.049563, "lng": 7.801704, "bike": false, "name": "Hochdorf - Dorfplatz", "address": null, "spot": true, "number": 36505, "booked_bikes": 0, "bikes": 11, "bikes_available_to_rent": 11, "bike_racks": 0, "free_racks": 0, "special_racks": 0, "free_special_racks": 0, "maintenance": false, "terminal_type": "sign", "bike_list": [{"number": "32869", "bike_type": 71, "lock_types": ["frame_lock"], "active": true, "state": "ok", "electric_lock": true, "boardcomputer": 7551126246, "pedelec_battery": null, "battery_pack": null}, {"number": "32773", "bike_type": 71, "lock_types": ["frame_lock"], "active": true, "state": "ok", "electric_lock": true, "boardcomputer": 7551154804, "pedelec_battery": null, "battery_pack": null}, {"number": "32752", "bike_type": 71, "lock_types": ["frame_lock"], "active": true, "state": "ok", "electric_lock": true, "boardcomputer": 7551014830, "pedelec_battery": null, "battery_pack": null}, {"number": "32649", "bike_type": 71, "lock_types": ["frame_lock"], "active": true, "state": "ok", "electric_lock": true, "boardcomputer": 7551150398, "pedelec_battery": null, "battery_pack": null}, {"number": "32613", "bike_type": 150, "lock_types": ["frame_lock"], "active": true, "state": "ok", "electric_lock": true, "boardcomputer": 7551168164, "pedelec_battery": null, "battery_pack": null}, {"number": "32588", "bike_type": 150, "lock_types": ["frame_lock"], "active": true, "state": "ok", "electric_lock": true, "boardcomputer": 7551155839, "pedelec_battery": null, "battery_pack": null}, {"number": "32546", "bike_type": 150, "lock_types": ["frame_lock"], "active": true, "state": "ok", "electric_lock": true, "boardcomputer": 7551039147, "pedelec_battery": null, "battery_pack": null}, {"number": "35560", "bike_type": 71, "lock_types": ["frame_lock"], "active": true, "state": "ok", "electric_lock": true, "boardcomputer": 7551122209, "pedelec_battery": null, "battery_pack": null}, {"number": "33471", "bike_type": 71, "lock_types": ["frame_lock"], "active": true, "state": "ok", "electric_lock": true, "boardcomputer": 7551123223, "pedelec_battery": null, "battery_pack": null}, {"number": "325046", "bike_type": 196, "lock_types": ["frame_lock"], "active": true, "state": "ok", "electric_lock": true, "boardcomputer": 7551153538, "pedelec_battery": null, "battery_pack": null}, {"number": "325024", "bike_type": 196, "lock_types": ["frame_lock"], "active": true, "state": "ok", "electric_lock": true, "boardcomputer": 7551168179, "pedelec_battery": null, "battery_pack": null}], "bike_numbers": ["32869", "32773", "32752", "32649", "32613", "32588", "32546", "35560", "33471", "325046", "325024"], "bike_types": {"71": 6, "150": 3, "196": 2}, "place_type": "0", "rack_locks": false}, {"uid": 29797010, "lat": 48.03234, "lng": 7.761476, "bike": false, "name": "Umkirch - Gutshof", "address": null, "spot": true, "number": 36506, "booked_bikes": 0, "bikes": 10, "bikes_available_to_rent": 10, "bike_racks": 0, "free_racks": 0, "special_racks": 0, "free_special_racks": 0, "maintenance": false, "terminal_type": "sign", "bike_list": [{"number": "32999", "bike_type": 150, "lock_types": ["frame_lock"], "active": true, "state": "ok", "electric_lock": true, "boardcomputer": 7551171597, "pedelec_battery": null, "battery_pack": null}, {"number": "32961", "bike_type": 150, "lock_types": ["frame_lock"], "active": true, "state": "ok", "electric_lock": true, "boardcomputer": 7551139023, "pedelec_battery": null, "battery_pack": null}, {"number": "32880", "bike_type": 150, "lock_types": ["frame_lock"], "active": true, "state": "ok", "electric_lock": true, "boardcomputer": 7551159703, "pedelec_battery": null, "battery_pack": null}, {"number": "32829", "bike_type": 196, "lock_types": ["frame_lock"], "active": true, "state": "ok", "electric_lock": true, "boardcomputer": 7551124097, "pedelec_battery": null, "battery_pack": null}, {"number": "32796", "bike_type": 196, "lock_types": ["frame_lock"], "active": true, "state": "ok", "electric_lock": true, "boardcomputer": 7551164172, "pedelec_battery": null, "battery_pack": null}, {"number": "32791", "bike_type": 71, "lock_types": ["frame_lock"], "active": true, "state": "ok", "electric_lock": true, "boardcomputer": 7551123754, "pedelec_battery": null, "battery_pack": null}, {"number": "32539", "bike_type": 150, "lock_types": ["frame_lock"], "active": true, "state": "ok", "electric_lock": true, "boardcomputer": 7551115811, "pedelec_battery": null, "battery_pack": null}, {"number": "35652", "bike_type": 71, "lock_types": ["frame_lock"], "active": true, "state": "ok", "electric_lock": true, "boardcomputer": 7551132813, "pedelec_battery": null, "battery_pack": null}, {"number": "33472", "bike_type": 71, "lock_types": ["frame_lock"], "active": true, "state": "ok", "electric_lock": true, "boardcomputer": 7551124299, "pedelec_battery": null, "battery_pack": null}, {"number": "33458", "bike_type": 71, "lock_types": ["frame_lock"], "active": true, "state": "ok", "electric_lock": true, "boardcomputer": 7551131798, "pedelec_battery": null, "battery_pack": null}], "bike_numbers": ["32999", "32961", "32880", "32829", "32796", "32791", "32539", "35652", "33472", "33458"], "bike_types": {"71": 4, "150": 4, "196": 2}, "place_type": "0", "rack_locks": false}, {"uid": 29797015, "lat": 47.9657, "lng": 7.827759, "bike": false, "name": "Merzhausen - Dorfstra\u00dfe", "address": null, "spot": true, "number": 36507, "booked_bikes": 0, "bikes": 2, "bikes_available_to_rent": 2, "bike_racks": 0, "free_racks": 0, "special_racks": 0, "free_special_racks": 0, "maintenance": false, "terminal_type": "sign", "bike_list": [{"number": "32639", "bike_type": 71, "lock_types": ["frame_lock"], "active": true, "state": "ok", "electric_lock": true, "boardcomputer": 7551014953, "pedelec_battery": null, "battery_pack": null}, {"number": "33446", "bike_type": 71, "lock_types": ["frame_lock"], "active": true, "state": "ok", "electric_lock": true, "boardcomputer": 7551123224, "pedelec_battery": null, "battery_pack": null}], "bike_numbers": ["32639", "33446"], "bike_types": {"71": 2}, "place_type": "0", "rack_locks": false}, {"uid": 29797019, "lat": 48.028638, "lng": 7.833831, "bike": false, "name": "IKEA Freiburg - Probestation", "address": null, "spot": true, "number": 36508, "booked_bikes": 0, "bikes": 5, "bikes_available_to_rent": 5, "bike_racks": 0, "free_racks": 0, "special_racks": 0, "free_special_racks": 0, "maintenance": false, "terminal_type": "sign", "bike_list": [{"number": "32889", "bike_type": 71, "lock_types": ["frame_lock"], "active": true, "state": "ok", "electric_lock": true, "boardcomputer": 7551138119, "pedelec_battery": null, "battery_pack": null}, {"number": "32769", "bike_type": 71, "lock_types": ["frame_lock"], "active": true, "state": "ok", "electric_lock": true, "boardcomputer": 7551016609, "pedelec_battery": null, "battery_pack": null}, {"number": "32762", "bike_type": 150, "lock_types": ["frame_lock"], "active": true, "state": "ok", "electric_lock": true, "boardcomputer": 7551142427, "pedelec_battery": null, "battery_pack": null}, {"number": "32636", "bike_type": 150, "lock_types": ["frame_lock"], "active": true, "state": "ok", "electric_lock": true, "boardcomputer": 7551092301, "pedelec_battery": null, "battery_pack": null}, {"number": "35583", "bike_type": 71, "lock_types": ["frame_lock"], "active": true, "state": "ok", "electric_lock": true, "boardcomputer": 7551132919, "pedelec_battery": null, "battery_pack": null}], "bike_numbers": ["32889", "32769", "32762", "32636", "35583"], "bike_types": {"71": 3, "150": 2}, "place_type": "0", "rack_locks": false}, {"uid": 33269648, "lat": 48.010611, "lng": 7.811966, "bike": false, "name": "Betzenhauser Torplatz", "address": null, "spot": true, "number": 3870, "booked_bikes": 0, "bikes": 7, "bikes_available_to_rent": 7, "bike_racks": 10, "free_racks": 3, "special_racks": 0, "free_special_racks": 0, "maintenance": true, "terminal_type": "sign", "bike_list": [{"number": "32946", "bike_type": 196, "lock_types": ["frame_lock"], "active": true, "state": "ok", "electric_lock": true, "boardcomputer": 7551153617, "pedelec_battery": null, "battery_pack": null}, {"number": "32928", "bike_type": 71, "lock_types": ["frame_lock"], "active": true, "state": "ok", "electric_lock": true, "boardcomputer": 7551123735, "pedelec_battery": null, "battery_pack": null}, {"number": "32920", "bike_type": 71, "lock_types": ["frame_lock"], "active": true, "state": "ok", "electric_lock": true, "boardcomputer": 7551124654, "pedelec_battery": null, "battery_pack": null}, {"number": "32725", "bike_type": 196, "lock_types": ["frame_lock"], "active": true, "state": "ok", "electric_lock": true, "boardcomputer": 7551108384, "pedelec_battery": null, "battery_pack": null}, {"number": "325010", "bike_type": 181, "lock_types": ["frame_lock"], "active": true, "state": "ok", "electric_lock": true, "boardcomputer": 7551169241, "pedelec_battery": 43, "battery_pack": {"percentage": 43}}, {"number": "325008", "bike_type": 181, "lock_types": ["frame_lock"], "active": true, "state": "ok", "electric_lock": true, "boardcomputer": 7551059043, "pedelec_battery": 84, "battery_pack": {"percentage": 84}}, {"number": "35556", "bike_type": 150, "lock_types": ["frame_lock"], "active": true, "state": "ok", "electric_lock": true, "boardcomputer": 7551121087, "pedelec_battery": null, "battery_pack": null}], "bike_numbers": ["32946", "32928", "32920", "32725", "325010", "325008", "35556"], "bike_types": {"71": 2, "150": 1, "181": 2, "196": 2}, "place_type": "18", "rack_locks": false}, {"uid": 33269678, "lat": 48.004991, "lng": 7.855278, "bike": false, "name": "Habsburgerstra\u00dfe / Jacobistra\u00dfe", "address": null, "spot": true, "number": 3845, "booked_bikes": 0, "bikes": 11, "bikes_available_to_rent": 11, "bike_racks": 9, "free_racks": 0, "special_racks": 0, "free_special_racks": 0, "maintenance": false, "terminal_type": "sign", "bike_list": [{"number": "32954", "bike_type": 196, "lock_types": ["frame_lock"], "active": true, "state": "ok", "electric_lock": true, "boardcomputer": 7551151516, "pedelec_battery": null, "battery_pack": null}, {"number": "32875", "bike_type": 196, "lock_types": ["frame_lock"], "active": true, "state": "ok", "electric_lock": true, "boardcomputer": 7551168165, "pedelec_battery": null, "battery_pack": null}, {"number": "32770", "bike_type": 150, "lock_types": ["frame_lock"], "active": true, "state": "ok", "electric_lock": true, "boardcomputer": 7551171024, "pedelec_battery": null, "battery_pack": null}, {"number": "32645", "bike_type": 196, "lock_types": ["frame_lock"], "active": true, "state": "ok", "electric_lock": true, "boardcomputer": 7551146120, "pedelec_battery": null, "battery_pack": null}, {"number": "32554", "bike_type": 71, "lock_types": ["frame_lock"], "active": true, "state": "ok", "electric_lock": true, "boardcomputer": 7551150402, "pedelec_battery": null, "battery_pack": null}, {"number": "32540", "bike_type": 71, "lock_types": ["frame_lock"], "active": true, "state": "ok", "electric_lock": true, "boardcomputer": 7551126252, "pedelec_battery": null, "battery_pack": null}, {"number": "33923", "bike_type": 196, "lock_types": ["frame_lock"], "active": true, "state": "ok", "electric_lock": true, "boardcomputer": 7551170259, "pedelec_battery": null, "battery_pack": null}, {"number": "33488", "bike_type": 150, "lock_types": ["frame_lock"], "active": true, "state": "ok", "electric_lock": true, "boardcomputer": 7551125340, "pedelec_battery": null, "battery_pack": null}, {"number": "35673", "bike_type": 150, "lock_types": ["frame_lock"], "active": true, "state": "ok", "electric_lock": true, "boardcomputer": 7551089465, "pedelec_battery": null, "battery_pack": null}, {"number": "33478", "bike_type": 150, "lock_types": ["frame_lock"], "active": true, "state": "ok", "electric_lock": true, "boardcomputer": 7551124293, "pedelec_battery": null, "battery_pack": null}, {"number": "33444", "bike_type": 71, "lock_types": ["frame_lock"], "active": true, "state": "ok", "electric_lock": true, "boardcomputer": 7551131733, "pedelec_battery": null, "battery_pack": null}], "bike_numbers": ["32954", "32875", "32770", "32645", "32554", "32540", "33923", "33488", "35673", "33478", "33444"], "bike_types": {"71": 3, "150": 4, "196": 4}, "place_type": "0", "rack_locks": false}, {"uid": 33269707, "lat": 47.995206, "lng": 7.84081, "bike": false, "name": "Wiwilibr\u00fccke", "address": null, "spot": true, "number": 3846, "booked_bikes": 0, "bikes": 25, "bikes_available_to_rent": 25, "bike_racks": 10, "free_racks": 0, "special_racks": 0, "free_special_racks": 0, "maintenance": false, "terminal_type": "sign", "bike_list": [{"number": "32911", "bike_type": 71, "lock_types": ["frame_lock"], "active": true, "state": "ok", "electric_lock": true, "boardcomputer": 7551151338, "pedelec_battery": null, "battery_pack": null}, {"number": "32886", "bike_type": 150, "lock_types": ["frame_lock"], "active": true, "state": "ok", "electric_lock": true, "boardcomputer": 7551139955, "pedelec_battery": null, "battery_pack": null}, {"number": "32850", "bike_type": 196, "lock_types": ["frame_lock"], "active": true, "state": "ok", "electric_lock": true, "boardcomputer": 7551164136, "pedelec_battery": null, "battery_pack": null}, {"number": "32847", "bike_type": 196, "lock_types": ["frame_lock"], "active": true, "state": "ok", "electric_lock": true, "boardcomputer": 7551171028, "pedelec_battery": null, "battery_pack": null}, {"number": "32838", "bike_type": 196, "lock_types": ["frame_lock"], "active": true, "state": "ok", "electric_lock": true, "boardcomputer": 7551145162, "pedelec_battery": null, "battery_pack": null}, {"number": "32817", "bike_type": 150, "lock_types": ["frame_lock"], "active": true, "state": "ok", "electric_lock": true, "boardcomputer": 7551132828, "pedelec_battery": null, "battery_pack": null}, {"number": "32732", "bike_type": 71, "lock_types": ["frame_lock"], "active": true, "state": "ok", "electric_lock": true, "boardcomputer": 7551126763, "pedelec_battery": null, "battery_pack": null}, {"number": "32697", "bike_type": 150, "lock_types": ["frame_lock"], "active": true, "state": "ok", "electric_lock": true, "boardcomputer": 7551028470, "pedelec_battery": null, "battery_pack": null}, {"number": "32635", "bike_type": 196, "lock_types": ["frame_lock"], "active": true, "state": "ok", "electric_lock": true, "boardcomputer": 7551141956, "pedelec_battery": null, "battery_pack": null}, {"number": "32601", "bike_type": 150, "lock_types": ["frame_lock"], "active": true, "state": "ok", "electric_lock": true, "boardcomputer": 7551020945, "pedelec_battery": null, "battery_pack": null}, {"number": "32594", "bike_type": 71, "lock_types": ["frame_lock"], "active": true, "state": "ok", "electric_lock": true, "boardcomputer": 7551126711, "pedelec_battery": null, "battery_pack": null}, {"number": "32586", "bike_type": 71, "lock_types": ["frame_lock"], "active": true, "state": "ok", "electric_lock": true, "boardcomputer": 7551146852, "pedelec_battery": null, "battery_pack": null}, {"number": "32580", "bike_type": 71, "lock_types": ["frame_lock"], "active": true, "state": "ok", "electric_lock": true, "boardcomputer": 7551147219, "pedelec_battery": null, "battery_pack": null}, {"number": "32548", "bike_type": 150, "lock_types": ["frame_lock"], "active": true, "state": "ok", "electric_lock": true, "boardcomputer": 7551169248, "pedelec_battery": null, "battery_pack": null}, {"number": "32529", "bike_type": 150, "lock_types": ["frame_lock"], "active": true, "state": "ok", "electric_lock": true, "boardcomputer": 7551155840, "pedelec_battery": null, "battery_pack": null}, {"number": "32501", "bike_type": 196, "lock_types": ["frame_lock"], "active": true, "state": "ok", "electric_lock": true, "boardcomputer": 7551153880, "pedelec_battery": null, "battery_pack": null}, {"number": "33915", "bike_type": 150, "lock_types": ["frame_lock"], "active": true, "state": "ok", "electric_lock": true, "boardcomputer": 7551056583, "pedelec_battery": null, "battery_pack": null}, {"number": "33900", "bike_type": 150, "lock_types": ["frame_lock"], "active": true, "state": "ok", "electric_lock": true, "boardcomputer": 7551133624, "pedelec_battery": null, "battery_pack": null}, {"number": "33497", "bike_type": 196, "lock_types": ["frame_lock"], "active": true, "state": "ok", "electric_lock": true, "boardcomputer": 7551126714, "pedelec_battery": null, "battery_pack": null}, {"number": "35608", "bike_type": 196, "lock_types": ["frame_lock"], "active": true, "state": "ok", "electric_lock": true, "boardcomputer": 7551059774, "pedelec_battery": null, "battery_pack": null}, {"number": "35672", "bike_type": 150, "lock_types": ["frame_lock"], "active": true, "state": "ok", "electric_lock": true, "boardcomputer": 7551130560, "pedelec_battery": null, "battery_pack": null}, {"number": "35592", "bike_type": 150, "lock_types": ["frame_lock"], "active": true, "state": "ok", "electric_lock": true, "boardcomputer": 7551111336, "pedelec_battery": null, "battery_pack": null}, {"number": "35571", "bike_type": 71, "lock_types": ["frame_lock"], "active": true, "state": "ok", "electric_lock": true, "boardcomputer": 7551121318, "pedelec_battery": null, "battery_pack": null}, {"number": "33441", "bike_type": 71, "lock_types": ["frame_lock"], "active": true, "state": "ok", "electric_lock": true, "boardcomputer": 7551123369, "pedelec_battery": null, "battery_pack": null}, {"number": "325038", "bike_type": 196, "lock_types": ["frame_lock"], "active": true, "state": "ok", "electric_lock": true, "boardcomputer": 7551153537, "pedelec_battery": null, "battery_pack": null}], "bike_numbers": ["32911", "32886", "32850", "32847", "32838", "32817", "32732", "32697", "32635", "32601", "32594", "32586", "32580", "32548", "32529", "32501", "33915", "33900", "33497", "35608", "35672", "35592", "35571", "33441", "325038"], "bike_types": {"71": 7, "150": 10, "196": 8}, "place_type": "0", "rack_locks": false}, {"uid": 33269738, "lat": 47.991351, "lng": 7.844388, "bike": false, "name": "Kronenbr\u00fccke / Wilhelmstra\u00dfe", "address": null, "spot": true, "number": 3847, "booked_bikes": 0, "bikes": 2, "bikes_available_to_rent": 2, "bike_racks": 9, "free_racks": 7, "special_racks": 0, "free_special_racks": 0, "maintenance": false, "terminal_type": "sign", "bike_list": [{"number": "32767", "bike_type": 196, "lock_types": ["frame_lock"], "active": true, "state": "ok", "electric_lock": true, "boardcomputer": 7551153744, "pedelec_battery": null, "battery_pack": null}, {"number": "32759", "bike_type": 150, "lock_types": ["frame_lock"], "active": true, "state": "ok", "electric_lock": true, "boardcomputer": 7551092608, "pedelec_battery": null, "battery_pack": null}], "bike_numbers": ["32767", "32759"], "bike_types": {"150": 1, "196": 1}, "place_type": "0", "rack_locks": false}, {"uid": 33269766, "lat": 47.997234, "lng": 7.795159, "bike": false, "name": "Geschwister-Scholl-Platz (FreloPlus)", "address": null, "spot": true, "number": 3848, "booked_bikes": 0, "bikes": 12, "bikes_available_to_rent": 12, "bike_racks": 8, "free_racks": 0, "special_racks": 0, "free_special_racks": 0, "maintenance": false, "terminal_type": "sign", "bike_list": [{"number": "32960", "bike_type": 71, "lock_types": ["frame_lock"], "active": true, "state": "ok", "electric_lock": true, "boardcomputer": 7551017214, "pedelec_battery": null, "battery_pack": null}, {"number": "32915", "bike_type": 71, "lock_types": ["frame_lock"], "active": true, "state": "ok", "electric_lock": true, "boardcomputer": 7551126764, "pedelec_battery": null, "battery_pack": null}, {"number": "32777", "bike_type": 71, "lock_types": ["frame_lock"], "active": true, "state": "ok", "electric_lock": true, "boardcomputer": 7551131974, "pedelec_battery": null, "battery_pack": null}, {"number": "32728", "bike_type": 71, "lock_types": ["frame_lock"], "active": true, "state": "ok", "electric_lock": true, "boardcomputer": 7551123786, "pedelec_battery": null, "battery_pack": null}, {"number": "32720", "bike_type": 150, "lock_types": ["frame_lock"], "active": true, "state": "ok", "electric_lock": true, "boardcomputer": 7551125177, "pedelec_battery": null, "battery_pack": null}, {"number": "32658", "bike_type": 196, "lock_types": ["frame_lock"], "active": true, "state": "ok", "electric_lock": true, "boardcomputer": 7551092413, "pedelec_battery": null, "battery_pack": null}, {"number": "32656", "bike_type": 196, "lock_types": ["frame_lock"], "active": true, "state": "ok", "electric_lock": true, "boardcomputer": 7551125470, "pedelec_battery": null, "battery_pack": null}, {"number": "32653", "bike_type": 150, "lock_types": ["frame_lock"], "active": true, "state": "ok", "electric_lock": true, "boardcomputer": 7551168870, "pedelec_battery": null, "battery_pack": null}, {"number": "32605", "bike_type": 71, "lock_types": ["frame_lock"], "active": true, "state": "ok", "electric_lock": true, "boardcomputer": 7551150890, "pedelec_battery": null, "battery_pack": null}, {"number": "32541", "bike_type": 71, "lock_types": ["frame_lock"], "active": true, "state": "ok", "electric_lock": true, "boardcomputer": 7551129155, "pedelec_battery": null, "battery_pack": null}, {"number": "32526", "bike_type": 150, "lock_types": ["frame_lock"], "active": true, "state": "ok", "electric_lock": true, "boardcomputer": 7551160704, "pedelec_battery": null, "battery_pack": null}, {"number": "35610", "bike_type": 150, "lock_types": ["frame_lock"], "active": true, "state": "ok", "electric_lock": true, "boardcomputer": 7551150944, "pedelec_battery": null, "battery_pack": null}], "bike_numbers": ["32960", "32915", "32777", "32728", "32720", "32658", "32656", "32653", "32605", "32541", "32526", "35610"], "bike_types": {"71": 6, "150": 4, "196": 2}, "place_type": "18", "rack_locks": false}, {"uid": 33269811, "lat": 47.986769, "lng": 7.829116, "bike": false, "name": "Pressehaus", "address": null, "spot": true, "number": 3849, "booked_bikes": 0, "bikes": 0, "bikes_available_to_rent": 0, "bike_racks": 7, "free_racks": 7, "special_racks": 0, "free_special_racks": 0, "maintenance": false, "terminal_type": "sign", "bike_list": [], "bike_numbers": [], "bike_types": {}, "place_type": "0", "rack_locks": false}, {"uid": 33269843, "lat": 47.986277, "lng": 7.837581, "bike": false, "name": "Heinrich-von-Stephan-Stra\u00dfe / Basler Stra\u00dfe", "address": null, "spot": true, "number": 3850, "booked_bikes": 0, "bikes": 0, "bikes_available_to_rent": 0, "bike_racks": 8, "free_racks": 6, "special_racks": 0, "free_special_racks": 0, "maintenance": false, "terminal_type": "sign", "bike_list": [], "bike_numbers": [], "bike_types": {}, "place_type": "0", "rack_locks": false}, {"uid": 33269872, "lat": 47.990274, "lng": 7.853658, "bike": false, "name": "Schwabentorbr\u00fccke", "address": null, "spot": true, "number": 3851, "booked_bikes": 0, "bikes": 0, "bikes_available_to_rent": 0, "bike_racks": 7, "free_racks": 6, "special_racks": 0, "free_special_racks": 0, "maintenance": false, "terminal_type": "sign", "bike_list": [], "bike_numbers": [], "bike_types": {}, "place_type": "0", "rack_locks": false}, {"uid": 33269901, "lat": 47.985014, "lng": 7.854023, "bike": false, "name": "Alter Wiehrebahnhof (FreloPlus)", "address": null, "spot": true, "number": 3871, "booked_bikes": 0, "bikes": 3, "bikes_available_to_rent": 3, "bike_racks": 10, "free_racks": 7, "special_racks": 0, "free_special_racks": 0, "maintenance": false, "terminal_type": "sign", "bike_list": [{"number": "32549", "bike_type": 71, "lock_types": ["frame_lock"], "active": true, "state": "ok", "electric_lock": true, "boardcomputer": 7551163884, "pedelec_battery": null, "battery_pack": null}, {"number": "35648", "bike_type": 196, "lock_types": ["frame_lock"], "active": true, "state": "ok", "electric_lock": true, "boardcomputer": 7551153735, "pedelec_battery": null, "battery_pack": null}, {"number": "35674", "bike_type": 150, "lock_types": ["frame_lock"], "active": true, "state": "ok", "electric_lock": true, "boardcomputer": 7551089862, "pedelec_battery": null, "battery_pack": null}], "bike_numbers": ["32549", "35648", "35674"], "bike_types": {"71": 1, "150": 1, "196": 1}, "place_type": "18", "rack_locks": false}, {"uid": 36749076, "lat": 48.002113, "lng": 7.820174, "bike": false, "name": "Bissierstra\u00dfe", "address": null, "spot": true, "number": 3872, "booked_bikes": 0, "bikes": 4, "bikes_available_to_rent": 4, "bike_racks": 7, "free_racks": 3, "special_racks": 0, "free_special_racks": 0, "maintenance": false, "terminal_type": "sign", "bike_list": [{"number": "32719", "bike_type": 150, "lock_types": ["frame_lock"], "active": true, "state": "ok", "electric_lock": true, "boardcomputer": 7551125932, "pedelec_battery": null, "battery_pack": null}, {"number": "32607", "bike_type": 71, "lock_types": ["frame_lock"], "active": true, "state": "ok", "electric_lock": true, "boardcomputer": 7551141116, "pedelec_battery": null, "battery_pack": null}, {"number": "35603", "bike_type": 196, "lock_types": ["frame_lock"], "active": true, "state": "ok", "electric_lock": true, "boardcomputer": 7551154050, "pedelec_battery": null, "battery_pack": null}, {"number": "325053", "bike_type": 196, "lock_types": ["frame_lock"], "active": true, "state": "ok", "electric_lock": true, "boardcomputer": 7551159010, "pedelec_battery": null, "battery_pack": null}], "bike_numbers": ["32719", "32607", "35603", "325053"], "bike_types": {"71": 1, "150": 1, "196": 2}, "place_type": "0", "rack_locks": false}, {"uid": 36749105, "lat": 48.01903, "lng": 7.857215, "bike": false, "name": "Tullastra\u00dfe / Z\u00e4hringer Stra\u00dfe (FreloPlus)", "address": null, "spot": true, "number": 3873, "booked_bikes": 0, "bikes": 8, "bikes_available_to_rent": 8, "bike_racks": 10, "free_racks": 2, "special_racks": 0, "free_special_racks": 0, "maintenance": false, "terminal_type": "sign", "bike_list": [{"number": "32986", "bike_type": 71, "lock_types": ["frame_lock"], "active": true, "state": "ok", "electric_lock": true, "boardcomputer": 7551125080, "pedelec_battery": null, "battery_pack": null}, {"number": "32742", "bike_type": 71, "lock_types": ["frame_lock"], "active": true, "state": "ok", "electric_lock": true, "boardcomputer": 7551124940, "pedelec_battery": null, "battery_pack": null}, {"number": "325000", "bike_type": 181, "lock_types": ["frame_lock"], "active": true, "state": "ok", "electric_lock": true, "boardcomputer": 7551062206, "pedelec_battery": 85, "battery_pack": {"percentage": 85}}, {"number": "33905", "bike_type": 150, "lock_types": ["frame_lock"], "active": true, "state": "ok", "electric_lock": true, "boardcomputer": 7551038712, "pedelec_battery": null, "battery_pack": null}, {"number": "325017", "bike_type": 181, "lock_types": ["frame_lock"], "active": true, "state": "ok", "electric_lock": true, "boardcomputer": 7551059029, "pedelec_battery": 100, "battery_pack": {"percentage": 100}}, {"number": "325007", "bike_type": 225, "lock_types": ["frame_lock"], "active": true, "state": "ok", "electric_lock": true, "boardcomputer": 7551164146, "pedelec_battery": 46, "battery_pack": {"percentage": 46}}, {"number": "35605", "bike_type": 196, "lock_types": ["frame_lock"], "active": true, "state": "ok", "electric_lock": true, "boardcomputer": 7551153992, "pedelec_battery": null, "battery_pack": null}, {"number": "325059", "bike_type": 196, "lock_types": ["frame_lock"], "active": true, "state": "ok", "electric_lock": true, "boardcomputer": 7551159003, "pedelec_battery": null, "battery_pack": null}], "bike_numbers": ["32986", "32742", "325000", "33905", "325017", "325007", "35605", "325059"], "bike_types": {"71": 2, "150": 1, "181": 2, "196": 2, "225": 1}, "place_type": "18", "rack_locks": false}, {"uid": 36749115, "lat": 47.996969, "lng": 7.854302, "bike": false, "name": "Karlsplatz (FreloPlus)", "address": null, "spot": true, "number": 3874, "booked_bikes": 0, "bikes": 3, "bikes_available_to_rent": 3, "bike_racks": 10, "free_racks": 7, "special_racks": 0, "free_special_racks": 0, "maintenance": false, "terminal_type": "sign", "bike_list": [{"number": "32994", "bike_type": 71, "lock_types": ["frame_lock"], "active": true, "state": "ok", "electric_lock": true, "boardcomputer": 7551125016, "pedelec_battery": null, "battery_pack": null}, {"number": "32786", "bike_type": 71, "lock_types": ["frame_lock"], "active": true, "state": "ok", "electric_lock": true, "boardcomputer": 7551058433, "pedelec_battery": null, "battery_pack": null}, {"number": "35633", "bike_type": 196, "lock_types": ["frame_lock"], "active": true, "state": "ok", "electric_lock": true, "boardcomputer": 7551159708, "pedelec_battery": null, "battery_pack": null}], "bike_numbers": ["32994", "32786", "35633"], "bike_types": {"71": 2, "196": 1}, "place_type": "18", "rack_locks": false}, {"uid": 36749123, "lat": 47.99811, "lng": 7.817996, "bike": false, "name": "Laufener Stra\u00dfe / Haslacher Stra\u00dfe", "address": null, "spot": true, "number": 3875, "booked_bikes": 0, "bikes": 2, "bikes_available_to_rent": 2, "bike_racks": 6, "free_racks": 3, "special_racks": 0, "free_special_racks": 0, "maintenance": false, "terminal_type": "sign", "bike_list": [{"number": "32794", "bike_type": 71, "lock_types": ["frame_lock"], "active": true, "state": "ok", "electric_lock": true, "boardcomputer": 7551144295, "pedelec_battery": null, "battery_pack": null}, {"number": "32515", "bike_type": 150, "lock_types": ["frame_lock"], "active": true, "state": "ok", "electric_lock": true, "boardcomputer": 7551168081, "pedelec_battery": null, "battery_pack": null}], "bike_numbers": ["32794", "32515"], "bike_types": {"71": 1, "150": 1}, "place_type": "0", "rack_locks": false}, {"uid": 36749134, "lat": 47.992481, "lng": 7.832758, "bike": false, "name": "Haslacher Stra\u00dfe / Eschholzstra\u00dfe", "address": null, "spot": true, "number": 3876, "booked_bikes": 0, "bikes": 4, "bikes_available_to_rent": 4, "bike_racks": 8, "free_racks": 4, "special_racks": 0, "free_special_racks": 0, "maintenance": false, "terminal_type": "sign", "bike_list": [{"number": "32756", "bike_type": 71, "lock_types": ["frame_lock"], "active": true, "state": "ok", "electric_lock": true, "boardcomputer": 7551152594, "pedelec_battery": null, "battery_pack": null}, {"number": "32657", "bike_type": 71, "lock_types": ["frame_lock"], "active": true, "state": "ok", "electric_lock": true, "boardcomputer": 7551159707, "pedelec_battery": null, "battery_pack": null}, {"number": "33941", "bike_type": 196, "lock_types": ["frame_lock"], "active": true, "state": "ok", "electric_lock": true, "boardcomputer": 7551163892, "pedelec_battery": null, "battery_pack": null}, {"number": "33491", "bike_type": 150, "lock_types": ["frame_lock"], "active": true, "state": "ok", "electric_lock": true, "boardcomputer": 7551123982, "pedelec_battery": null, "battery_pack": null}], "bike_numbers": ["32756", "32657", "33941", "33491"], "bike_types": {"71": 2, "150": 1, "196": 1}, "place_type": "0", "rack_locks": false}, {"uid": 36749146, "lat": 47.978927, "lng": 7.809697, "bike": false, "name": "Schneeburgstra\u00dfe / Andreas-Hofer-Stra\u00dfe", "address": null, "spot": true, "number": 3877, "booked_bikes": 0, "bikes": 5, "bikes_available_to_rent": 5, "bike_racks": 6, "free_racks": 1, "special_racks": 0, "free_special_racks": 0, "maintenance": false, "terminal_type": "sign", "bike_list": [{"number": "32714", "bike_type": 71, "lock_types": ["frame_lock"], "active": true, "state": "ok", "electric_lock": true, "boardcomputer": 7551016661, "pedelec_battery": null, "battery_pack": null}, {"number": "32568", "bike_type": 196, "lock_types": ["frame_lock"], "active": true, "state": "ok", "electric_lock": true, "boardcomputer": 7551147240, "pedelec_battery": null, "battery_pack": null}, {"number": "33487", "bike_type": 150, "lock_types": ["frame_lock"], "active": true, "state": "ok", "electric_lock": true, "boardcomputer": 7551015555, "pedelec_battery": null, "battery_pack": null}, {"number": "35591", "bike_type": 71, "lock_types": ["frame_lock"], "active": true, "state": "ok", "electric_lock": true, "boardcomputer": 7551109729, "pedelec_battery": null, "battery_pack": null}, {"number": "325047", "bike_type": 196, "lock_types": ["frame_lock"], "active": true, "state": "ok", "electric_lock": true, "boardcomputer": 7551153679, "pedelec_battery": null, "battery_pack": null}], "bike_numbers": ["32714", "32568", "33487", "35591", "325047"], "bike_types": {"71": 2, "150": 1, "196": 2}, "place_type": "0", "rack_locks": false}, {"uid": 36749158, "lat": 47.985236, "lng": 7.903789, "bike": false, "name": "Hirschenhofweg / Dreisamhalle", "address": null, "spot": true, "number": 3878, "booked_bikes": 0, "bikes": 2, "bikes_available_to_rent": 2, "bike_racks": 6, "free_racks": 4, "special_racks": 0, "free_special_racks": 0, "maintenance": false, "terminal_type": "sign", "bike_list": [{"number": "32950", "bike_type": 71, "lock_types": ["frame_lock"], "active": true, "state": "ok", "electric_lock": true, "boardcomputer": 7551130449, "pedelec_battery": null, "battery_pack": null}, {"number": "33935", "bike_type": 150, "lock_types": ["frame_lock"], "active": true, "state": "ok", "electric_lock": true, "boardcomputer": 7551038969, "pedelec_battery": null, "battery_pack": null}], "bike_numbers": ["32950", "33935"], "bike_types": {"71": 1, "150": 1}, "place_type": "0", "rack_locks": false}, {"uid": 36749168, "lat": 48.018829, "lng": 7.840199, "bike": false, "name": "Messe Freiburg", "address": null, "spot": true, "number": 3879, "booked_bikes": 0, "bikes": 5, "bikes_available_to_rent": 5, "bike_racks": 10, "free_racks": 4, "special_racks": 0, "free_special_racks": 0, "maintenance": false, "terminal_type": "7inch", "bike_list": [{"number": "32966", "bike_type": 150, "lock_types": ["frame_lock"], "active": true, "state": "ok", "electric_lock": true, "boardcomputer": 7551151339, "pedelec_battery": null, "battery_pack": null}, {"number": "32677", "bike_type": 150, "lock_types": ["frame_lock"], "active": true, "state": "ok", "electric_lock": true, "boardcomputer": 7551012347, "pedelec_battery": null, "battery_pack": null}, {"number": "32654", "bike_type": 71, "lock_types": ["frame_lock"], "active": true, "state": "ok", "electric_lock": true, "boardcomputer": 7551151277, "pedelec_battery": null, "battery_pack": null}, {"number": "32566", "bike_type": 71, "lock_types": ["frame_lock"], "active": true, "state": "ok", "electric_lock": true, "boardcomputer": 7551125510, "pedelec_battery": null, "battery_pack": null}, {"number": "33924", "bike_type": 150, "lock_types": ["frame_lock"], "active": true, "state": "ok", "electric_lock": true, "boardcomputer": 7551129006, "pedelec_battery": null, "battery_pack": null}], "bike_numbers": ["32966", "32677", "32654", "32566", "33924"], "bike_types": {"71": 2, "150": 3}, "place_type": "0", "rack_locks": false}, {"uid": 48364093, "lat": 47.965962, "lng": 7.854978, "bike": false, "name": "G\u00fcnterstal - Hirschstra\u00dfe", "address": null, "spot": true, "number": 36525, "booked_bikes": 0, "bikes": 1, "bikes_available_to_rent": 1, "bike_racks": 0, "free_racks": 0, "special_racks": 0, "free_special_racks": 0, "maintenance": false, "terminal_type": "", "bike_list": [{"number": "32591", "bike_type": 71, "lock_types": ["frame_lock"], "active": true, "state": "ok", "electric_lock": true, "boardcomputer": 7551150938, "pedelec_battery": null, "battery_pack": null}], "bike_numbers": ["32591"], "bike_types": {"71": 1}, "place_type": "0", "rack_locks": false}, {"uid": 48364121, "lat": 47.975652, "lng": 7.915413, "bike": false, "name": "Kappel K\u00f6nigsberger Stra\u00dfe", "address": null, "spot": true, "number": 36526, "booked_bikes": 0, "bikes": 1, "bikes_available_to_rent": 1, "bike_racks": 0, "free_racks": 0, "special_racks": 0, "free_special_racks": 0, "maintenance": false, "terminal_type": "", "bike_list": [{"number": "32555", "bike_type": 196, "lock_types": ["frame_lock"], "active": true, "state": "ok", "electric_lock": true, "boardcomputer": 7551012054, "pedelec_battery": null, "battery_pack": null}], "bike_numbers": ["32555"], "bike_types": {"196": 1}, "place_type": "0", "rack_locks": false}, {"uid": 48364151, "lat": 47.99311, "lng": 7.809681, "bike": false, "name": " Krozinger Stra\u00dfe", "address": null, "spot": true, "number": 36527, "booked_bikes": 0, "bikes": 7, "bikes_available_to_rent": 7, "bike_racks": 0, "free_racks": 0, "special_racks": 0, "free_special_racks": 0, "maintenance": false, "terminal_type": "", "bike_list": [{"number": "32782", "bike_type": 150, "lock_types": ["frame_lock"], "active": true, "state": "ok", "electric_lock": true, "boardcomputer": 7551089256, "pedelec_battery": null, "battery_pack": null}, {"number": "32705", "bike_type": 71, "lock_types": ["frame_lock"], "active": true, "state": "ok", "electric_lock": true, "boardcomputer": 7551152312, "pedelec_battery": null, "battery_pack": null}, {"number": "32682", "bike_type": 71, "lock_types": ["frame_lock"], "active": true, "state": "ok", "electric_lock": true, "boardcomputer": 7551150885, "pedelec_battery": null, "battery_pack": null}, {"number": "32672", "bike_type": 71, "lock_types": ["frame_lock"], "active": true, "state": "ok", "electric_lock": true, "boardcomputer": 7551125610, "pedelec_battery": null, "battery_pack": null}, {"number": "32619", "bike_type": 196, "lock_types": ["frame_lock"], "active": true, "state": "ok", "electric_lock": true, "boardcomputer": 7551093262, "pedelec_battery": null, "battery_pack": null}, {"number": "32600", "bike_type": 196, "lock_types": ["frame_lock"], "active": true, "state": "ok", "electric_lock": true, "boardcomputer": 7551130173, "pedelec_battery": null, "battery_pack": null}, {"number": "33435", "bike_type": 71, "lock_types": ["frame_lock"], "active": true, "state": "ok", "electric_lock": true, "boardcomputer": 7551123368, "pedelec_battery": null, "battery_pack": null}], "bike_numbers": ["32782", "32705", "32682", "32672", "32619", "32600", "33435"], "bike_types": {"71": 4, "150": 1, "196": 2}, "place_type": "0", "rack_locks": false}, {"uid": 48364166, "lat": 47.984838, "lng": 7.820495, "bike": false, "name": "Freiburg - Else-Wagner-Stra\u00dfe", "address": null, "spot": true, "number": 36528, "booked_bikes": 0, "bikes": 5, "bikes_available_to_rent": 5, "bike_racks": 0, "free_racks": 0, "special_racks": 0, "free_special_racks": 0, "maintenance": false, "terminal_type": "", "bike_list": [{"number": "32812", "bike_type": 71, "lock_types": ["frame_lock"], "active": true, "state": "ok", "electric_lock": true, "boardcomputer": 7551007123, "pedelec_battery": null, "battery_pack": null}, {"number": "32650", "bike_type": 71, "lock_types": ["frame_lock"], "active": true, "state": "ok", "electric_lock": true, "boardcomputer": 7551038420, "pedelec_battery": null, "battery_pack": null}, {"number": "33937", "bike_type": 71, "lock_types": ["frame_lock"], "active": true, "state": "ok", "electric_lock": true, "boardcomputer": 7551018844, "pedelec_battery": null, "battery_pack": null}, {"number": "35584", "bike_type": 71, "lock_types": ["frame_lock"], "active": true, "state": "ok", "electric_lock": true, "boardcomputer": 7551120026, "pedelec_battery": null, "battery_pack": null}, {"number": "35569", "bike_type": 150, "lock_types": ["frame_lock"], "active": true, "state": "ok", "electric_lock": true, "boardcomputer": 7551122712, "pedelec_battery": null, "battery_pack": null}], "bike_numbers": ["32812", "32650", "33937", "35584", "35569"], "bike_types": {"71": 4, "150": 1}, "place_type": "0", "rack_locks": false}, {"uid": 48364174, "lat": 48.007116, "lng": 7.819219, "bike": false, "name": "StuSie / Sundgauallee", "address": null, "spot": true, "number": 36529, "booked_bikes": 0, "bikes": 19, "bikes_available_to_rent": 19, "bike_racks": 12, "free_racks": 0, "special_racks": 0, "free_special_racks": 0, "maintenance": false, "terminal_type": "", "bike_list": [{"number": "32996", "bike_type": 71, "lock_types": ["frame_lock"], "active": true, "state": "ok", "electric_lock": true, "boardcomputer": 7551038347, "pedelec_battery": null, "battery_pack": null}, {"number": "32955", "bike_type": 71, "lock_types": ["frame_lock"], "active": true, "state": "ok", "electric_lock": true, "boardcomputer": 7551092387, "pedelec_battery": null, "battery_pack": null}, {"number": "32867", "bike_type": 150, "lock_types": ["frame_lock"], "active": true, "state": "ok", "electric_lock": true, "boardcomputer": 7551123760, "pedelec_battery": null, "battery_pack": null}, {"number": "32837", "bike_type": 71, "lock_types": ["frame_lock"], "active": true, "state": "ok", "electric_lock": true, "boardcomputer": 7551150350, "pedelec_battery": null, "battery_pack": null}, {"number": "32821", "bike_type": 71, "lock_types": ["frame_lock"], "active": true, "state": "ok", "electric_lock": true, "boardcomputer": 7551018829, "pedelec_battery": null, "battery_pack": null}, {"number": "32748", "bike_type": 71, "lock_types": ["frame_lock"], "active": true, "state": "ok", "electric_lock": true, "boardcomputer": 7551164204, "pedelec_battery": null, "battery_pack": null}, {"number": "32737", "bike_type": 71, "lock_types": ["frame_lock"], "active": true, "state": "ok", "electric_lock": true, "boardcomputer": 7551014952, "pedelec_battery": null, "battery_pack": null}, {"number": "32724", "bike_type": 150, "lock_types": ["frame_lock"], "active": true, "state": "ok", "electric_lock": true, "boardcomputer": 7551130873, "pedelec_battery": null, "battery_pack": null}, {"number": "32514", "bike_type": 150, "lock_types": ["frame_lock"], "active": true, "state": "ok", "electric_lock": true, "boardcomputer": 7551154289, "pedelec_battery": null, "battery_pack": null}, {"number": "33918", "bike_type": 71, "lock_types": ["frame_lock"], "active": true, "state": "ok", "electric_lock": true, "boardcomputer": 7551131240, "pedelec_battery": null, "battery_pack": null}, {"number": "33494", "bike_type": 196, "lock_types": ["frame_lock"], "active": true, "state": "ok", "electric_lock": true, "boardcomputer": 7551144078, "pedelec_battery": null, "battery_pack": null}, {"number": "33481", "bike_type": 150, "lock_types": ["frame_lock"], "active": true, "state": "ok", "electric_lock": true, "boardcomputer": 7551039070, "pedelec_battery": null, "battery_pack": null}, {"number": "35643", "bike_type": 196, "lock_types": ["frame_lock"], "active": true, "state": "ok", "electric_lock": true, "boardcomputer": 7551159691, "pedelec_battery": null, "battery_pack": null}, {"number": "35642", "bike_type": 150, "lock_types": ["frame_lock"], "active": true, "state": "ok", "electric_lock": true, "boardcomputer": 7551089600, "pedelec_battery": null, "battery_pack": null}, {"number": "35552", "bike_type": 71, "lock_types": ["frame_lock"], "active": true, "state": "ok", "electric_lock": true, "boardcomputer": 7551122508, "pedelec_battery": null, "battery_pack": null}, {"number": "33479", "bike_type": 71, "lock_types": ["frame_lock"], "active": true, "state": "ok", "electric_lock": true, "boardcomputer": 7551131722, "pedelec_battery": null, "battery_pack": null}, {"number": "33468", "bike_type": 71, "lock_types": ["frame_lock"], "active": true, "state": "ok", "electric_lock": true, "boardcomputer": 7551131797, "pedelec_battery": null, "battery_pack": null}, {"number": "33433", "bike_type": 71, "lock_types": ["frame_lock"], "active": true, "state": "ok", "electric_lock": true, "boardcomputer": 7551171025, "pedelec_battery": null, "battery_pack": null}, {"number": "325061", "bike_type": 196, "lock_types": ["frame_lock"], "active": true, "state": "ok", "electric_lock": true, "boardcomputer": 7551159004, "pedelec_battery": null, "battery_pack": null}], "bike_numbers": ["32996", "32955", "32867", "32837", "32821", "32748", "32737", "32724", "32514", "33918", "33494", "33481", "35643", "35642", "35552", "33479", "33468", "33433", "325061"], "bike_types": {"71": 11, "150": 5, "196": 3}, "place_type": "0", "rack_locks": false}, {"uid": 48364184, "lat": 47.989204, "lng": 7.7898, "bike": false, "name": "Haufe Group Campus", "address": null, "spot": true, "number": 36530, "booked_bikes": 0, "bikes": 2, "bikes_available_to_rent": 2, "bike_racks": 6, "free_racks": 4, "special_racks": 0, "free_special_racks": 0, "maintenance": false, "terminal_type": "stele", "bike_list": [{"number": "32527", "bike_type": 150, "lock_types": ["frame_lock"], "active": true, "state": "ok", "electric_lock": true, "boardcomputer": 7551037935, "pedelec_battery": null, "battery_pack": null}, {"number": "35630", "bike_type": 150, "lock_types": ["frame_lock"], "active": true, "state": "ok", "electric_lock": true, "boardcomputer": 7551164205, "pedelec_battery": null, "battery_pack": null}], "bike_numbers": ["32527", "35630"], "bike_types": {"150": 2}, "place_type": "0", "rack_locks": false}, {"uid": 48364195, "lat": 48.020013, "lng": 7.82954, "bike": false, "name": "Frelo Event-Station / Europa-Park Stadion", "address": null, "spot": true, "number": 36531, "booked_bikes": 0, "bikes": 2, "bikes_available_to_rent": 2, "bike_racks": 0, "free_racks": 0, "special_racks": 0, "free_special_racks": 0, "maintenance": false, "terminal_type": "traffic_sign", "bike_list": [{"number": "32598", "bike_type": 71, "lock_types": ["frame_lock"], "active": true, "state": "ok", "electric_lock": true, "boardcomputer": 7551145306, "pedelec_battery": null, "battery_pack": null}, {"number": "32513", "bike_type": 71, "lock_types": ["frame_lock"], "active": true, "state": "ok", "electric_lock": true, "boardcomputer": 7551150935, "pedelec_battery": null, "battery_pack": null}], "bike_numbers": ["32598", "32513"], "bike_types": {"71": 2}, "place_type": "0", "rack_locks": false}, {"uid": 48364207, "lat": 48.047111, "lng": 7.870771, "bike": false, "name": "Gundelfingen - N\u00e4gelesee", "address": null, "spot": true, "number": 36532, "booked_bikes": 0, "bikes": 8, "bikes_available_to_rent": 8, "bike_racks": 6, "free_racks": 0, "special_racks": 0, "free_special_racks": 0, "maintenance": false, "terminal_type": "", "bike_list": [{"number": "32924", "bike_type": 150, "lock_types": ["frame_lock"], "active": true, "state": "ok", "electric_lock": true, "boardcomputer": 7551026529, "pedelec_battery": null, "battery_pack": null}, {"number": "32503", "bike_type": 71, "lock_types": ["frame_lock"], "active": true, "state": "ok", "electric_lock": true, "boardcomputer": 7551150131, "pedelec_battery": null, "battery_pack": null}, {"number": "35604", "bike_type": 150, "lock_types": ["frame_lock"], "active": true, "state": "ok", "electric_lock": true, "boardcomputer": 7551170258, "pedelec_battery": null, "battery_pack": null}, {"number": "35678", "bike_type": 71, "lock_types": ["frame_lock"], "active": true, "state": "ok", "electric_lock": true, "boardcomputer": 7551089197, "pedelec_battery": null, "battery_pack": null}, {"number": "35594", "bike_type": 71, "lock_types": ["frame_lock"], "active": true, "state": "ok", "electric_lock": true, "boardcomputer": 7551110500, "pedelec_battery": null, "battery_pack": null}, {"number": "33442", "bike_type": 71, "lock_types": ["frame_lock"], "active": true, "state": "ok", "electric_lock": true, "boardcomputer": 7551120158, "pedelec_battery": null, "battery_pack": null}, {"number": "33434", "bike_type": 71, "lock_types": ["frame_lock"], "active": true, "state": "ok", "electric_lock": true, "boardcomputer": 7551131803, "pedelec_battery": null, "battery_pack": null}, {"number": "325051", "bike_type": 150, "lock_types": ["frame_lock"], "active": true, "state": "ok", "electric_lock": true, "boardcomputer": 7551153910, "pedelec_battery": null, "battery_pack": null}], "bike_numbers": ["32924", "32503", "35604", "35678", "35594", "33442", "33434", "325051"], "bike_types": {"71": 5, "150": 3}, "place_type": "0", "rack_locks": false}, {"uid": 48364230, "lat": 48.020006, "lng": 7.828885, "bike": false, "name": "Frelo Event-Station / Europa-Park Stadion (Achim-Stocker-Stra\u00dfe)", "address": null, "spot": true, "number": 36534, "booked_bikes": 0, "bikes": 0, "bikes_available_to_rent": 0, "bike_racks": 0, "free_racks": 0, "special_racks": 0, "free_special_racks": 0, "maintenance": false, "terminal_type": "sign", "bike_list": [], "bike_numbers": [], "bike_types": {}, "place_type": "0", "rack_locks": false}, {"uid": 57136499, "lat": 47.9859, "lng": 7.78244, "bike": false, "name": "B\u00f6tzinger Stra\u00dfe / Stryker", "address": null, "spot": true, "number": 36509, "booked_bikes": 0, "bikes": 8, "bikes_available_to_rent": 8, "bike_racks": 6, "free_racks": 0, "special_racks": 0, "free_special_racks": 0, "maintenance": false, "terminal_type": "sign", "bike_list": [{"number": "32937", "bike_type": 196, "lock_types": ["frame_lock"], "active": true, "state": "ok", "electric_lock": true, "boardcomputer": 7551124648, "pedelec_battery": null, "battery_pack": null}, {"number": "32808", "bike_type": 71, "lock_types": ["frame_lock"], "active": true, "state": "ok", "electric_lock": true, "boardcomputer": 7551162957, "pedelec_battery": null, "battery_pack": null}, {"number": "32745", "bike_type": 71, "lock_types": ["frame_lock"], "active": true, "state": "ok", "electric_lock": true, "boardcomputer": 7551164209, "pedelec_battery": null, "battery_pack": null}, {"number": "32642", "bike_type": 71, "lock_types": ["frame_lock"], "active": true, "state": "ok", "electric_lock": true, "boardcomputer": 7551155262, "pedelec_battery": null, "battery_pack": null}, {"number": "32608", "bike_type": 71, "lock_types": ["frame_lock"], "active": true, "state": "ok", "electric_lock": true, "boardcomputer": 7551171029, "pedelec_battery": null, "battery_pack": null}, {"number": "32575", "bike_type": 196, "lock_types": ["frame_lock"], "active": true, "state": "ok", "electric_lock": true, "boardcomputer": 7551162378, "pedelec_battery": null, "battery_pack": null}, {"number": "35620", "bike_type": 150, "lock_types": ["frame_lock"], "active": true, "state": "ok", "electric_lock": true, "boardcomputer": 7551147222, "pedelec_battery": null, "battery_pack": null}, {"number": "325021", "bike_type": 196, "lock_types": ["frame_lock"], "active": true, "state": "ok", "electric_lock": true, "boardcomputer": 7551168222, "pedelec_battery": null, "battery_pack": null}], "bike_numbers": ["32937", "32808", "32745", "32642", "32608", "32575", "35620", "325021"], "bike_types": {"71": 4, "150": 1, "196": 3}, "place_type": "0", "rack_locks": false}, {"uid": 57136525, "lat": 48.025097, "lng": 7.814916, "bike": false, "name": "Wirthstra\u00dfe", "address": null, "spot": true, "number": 36510, "booked_bikes": 0, "bikes": 9, "bikes_available_to_rent": 9, "bike_racks": 6, "free_racks": 0, "special_racks": 0, "free_special_racks": 0, "maintenance": false, "terminal_type": "sign", "bike_list": [{"number": "32872", "bike_type": 71, "lock_types": ["frame_lock"], "active": true, "state": "ok", "electric_lock": true, "boardcomputer": 7551154282, "pedelec_battery": null, "battery_pack": null}, {"number": "32704", "bike_type": 71, "lock_types": ["frame_lock"], "active": true, "state": "ok", "electric_lock": true, "boardcomputer": 7551015171, "pedelec_battery": null, "battery_pack": null}, {"number": "32676", "bike_type": 71, "lock_types": ["frame_lock"], "active": true, "state": "ok", "electric_lock": true, "boardcomputer": 7551144293, "pedelec_battery": null, "battery_pack": null}, {"number": "32627", "bike_type": 196, "lock_types": ["frame_lock"], "active": true, "state": "ok", "electric_lock": true, "boardcomputer": 7551153600, "pedelec_battery": null, "battery_pack": null}, {"number": "32577", "bike_type": 71, "lock_types": ["frame_lock"], "active": true, "state": "ok", "electric_lock": true, "boardcomputer": 7551123716, "pedelec_battery": null, "battery_pack": null}, {"number": "33939", "bike_type": 71, "lock_types": ["frame_lock"], "active": true, "state": "ok", "electric_lock": true, "boardcomputer": 7551136828, "pedelec_battery": null, "battery_pack": null}, {"number": "33439", "bike_type": 71, "lock_types": ["frame_lock"], "active": true, "state": "ok", "electric_lock": true, "boardcomputer": 7551131314, "pedelec_battery": null, "battery_pack": null}, {"number": "325065", "bike_type": 150, "lock_types": ["frame_lock"], "active": true, "state": "ok", "electric_lock": true, "boardcomputer": 7551159013, "pedelec_battery": null, "battery_pack": null}, {"number": "325054", "bike_type": 196, "lock_types": ["frame_lock"], "active": true, "state": "ok", "electric_lock": true, "boardcomputer": 7551156477, "pedelec_battery": null, "battery_pack": null}], "bike_numbers": ["32872", "32704", "32676", "32627", "32577", "33939", "33439", "325065", "325054"], "bike_types": {"71": 6, "150": 1, "196": 2}, "place_type": "0", "rack_locks": false}, {"uid": 148616581, "lat": 48.008738, "lng": 7.834169, "bike": false, "name": "Fraunhofer - ISE", "address": null, "spot": true, "number": 36511, "booked_bikes": 0, "bikes": 6, "bikes_available_to_rent": 6, "bike_racks": 6, "free_racks": 0, "special_racks": 0, "free_special_racks": 0, "maintenance": false, "terminal_type": "free", "bike_list": [{"number": "32969", "bike_type": 150, "lock_types": ["frame_lock"], "active": true, "state": "ok", "electric_lock": true, "boardcomputer": 7551125018, "pedelec_battery": null, "battery_pack": null}, {"number": "32932", "bike_type": 71, "lock_types": ["frame_lock"], "active": true, "state": "ok", "electric_lock": true, "boardcomputer": 7551135187, "pedelec_battery": null, "battery_pack": null}, {"number": "35614", "bike_type": 71, "lock_types": ["frame_lock"], "active": true, "state": "ok", "electric_lock": true, "boardcomputer": 7551150256, "pedelec_battery": null, "battery_pack": null}, {"number": "35566", "bike_type": 196, "lock_types": ["frame_lock"], "active": true, "state": "ok", "electric_lock": true, "boardcomputer": 7551092410, "pedelec_battery": null, "battery_pack": null}, {"number": "33460", "bike_type": 150, "lock_types": ["frame_lock"], "active": true, "state": "ok", "electric_lock": true, "boardcomputer": 7551131587, "pedelec_battery": null, "battery_pack": null}, {"number": "325033", "bike_type": 196, "lock_types": ["frame_lock"], "active": true, "state": "ok", "electric_lock": true, "boardcomputer": 7551168224, "pedelec_battery": null, "battery_pack": null}], "bike_numbers": ["32969", "32932", "35614", "35566", "33460", "325033"], "bike_types": {"71": 2, "150": 2, "196": 2}, "place_type": "0", "rack_locks": false}, {"uid": 148616684, "lat": 47.995083, "lng": 7.825075, "bike": false, "name": "M\u00fchle", "address": null, "spot": true, "number": 36512, "booked_bikes": 0, "bikes": 5, "bikes_available_to_rent": 5, "bike_racks": 6, "free_racks": 1, "special_racks": 0, "free_special_racks": 0, "maintenance": false, "terminal_type": "free", "bike_list": [{"number": "32797", "bike_type": 196, "lock_types": ["frame_lock"], "active": true, "state": "ok", "electric_lock": true, "boardcomputer": 7551160696, "pedelec_battery": null, "battery_pack": null}, {"number": "32670", "bike_type": 71, "lock_types": ["frame_lock"], "active": true, "state": "ok", "electric_lock": true, "boardcomputer": 7551160623, "pedelec_battery": null, "battery_pack": null}, {"number": "32665", "bike_type": 150, "lock_types": ["frame_lock"], "active": true, "state": "ok", "electric_lock": true, "boardcomputer": 7551126718, "pedelec_battery": null, "battery_pack": null}, {"number": "32562", "bike_type": 196, "lock_types": ["frame_lock"], "active": true, "state": "ok", "electric_lock": true, "boardcomputer": 7551092540, "pedelec_battery": null, "battery_pack": null}, {"number": "325060", "bike_type": 196, "lock_types": ["frame_lock"], "active": true, "state": "ok", "electric_lock": true, "boardcomputer": 7551159001, "pedelec_battery": null, "battery_pack": null}], "bike_numbers": ["32797", "32670", "32665", "32562", "325060"], "bike_types": {"71": 1, "150": 1, "196": 3}, "place_type": "0", "rack_locks": false}, {"uid": 148616714, "lat": 48.010992, "lng": 7.847559, "bike": false, "name": "Zollhallenstra\u00dfe/Alter Zollhof", "address": null, "spot": true, "number": 36513, "booked_bikes": 0, "bikes": 17, "bikes_available_to_rent": 17, "bike_racks": 6, "free_racks": 0, "special_racks": 0, "free_special_racks": 0, "maintenance": false, "terminal_type": "free", "bike_list": [{"number": "32805", "bike_type": 196, "lock_types": ["frame_lock"], "active": true, "state": "ok", "electric_lock": true, "boardcomputer": 7551092603, "pedelec_battery": null, "battery_pack": null}, {"number": "32764", "bike_type": 150, "lock_types": ["frame_lock"], "active": true, "state": "ok", "electric_lock": true, "boardcomputer": 7551153737, "pedelec_battery": null, "battery_pack": null}, {"number": "32751", "bike_type": 196, "lock_types": ["frame_lock"], "active": true, "state": "ok", "electric_lock": true, "boardcomputer": 7551153599, "pedelec_battery": null, "battery_pack": null}, {"number": "32736", "bike_type": 150, "lock_types": ["frame_lock"], "active": true, "state": "ok", "electric_lock": true, "boardcomputer": 7551169249, "pedelec_battery": null, "battery_pack": null}, {"number": "32730", "bike_type": 71, "lock_types": ["frame_lock"], "active": true, "state": "ok", "electric_lock": true, "boardcomputer": 7551135766, "pedelec_battery": null, "battery_pack": null}, {"number": "32715", "bike_type": 150, "lock_types": ["frame_lock"], "active": true, "state": "ok", "electric_lock": true, "boardcomputer": 7551152408, "pedelec_battery": null, "battery_pack": null}, {"number": "32703", "bike_type": 71, "lock_types": ["frame_lock"], "active": true, "state": "ok", "electric_lock": true, "boardcomputer": 7551164089, "pedelec_battery": null, "battery_pack": null}, {"number": "32604", "bike_type": 71, "lock_types": ["frame_lock"], "active": true, "state": "ok", "electric_lock": true, "boardcomputer": 7551015699, "pedelec_battery": null, "battery_pack": null}, {"number": "32574", "bike_type": 71, "lock_types": ["frame_lock"], "active": true, "state": "ok", "electric_lock": true, "boardcomputer": 7551164202, "pedelec_battery": null, "battery_pack": null}, {"number": "32571", "bike_type": 196, "lock_types": ["frame_lock"], "active": true, "state": "ok", "electric_lock": true, "boardcomputer": 7551164141, "pedelec_battery": null, "battery_pack": null}, {"number": "33913", "bike_type": 71, "lock_types": ["frame_lock"], "active": true, "state": "ok", "electric_lock": true, "boardcomputer": 7551128908, "pedelec_battery": null, "battery_pack": null}, {"number": "33490", "bike_type": 196, "lock_types": ["frame_lock"], "active": true, "state": "ok", "electric_lock": true, "boardcomputer": 7551122634, "pedelec_battery": null, "battery_pack": null}, {"number": "33483", "bike_type": 150, "lock_types": ["frame_lock"], "active": true, "state": "ok", "electric_lock": true, "boardcomputer": 7551038970, "pedelec_battery": null, "battery_pack": null}, {"number": "35597", "bike_type": 71, "lock_types": ["frame_lock"], "active": true, "state": "ok", "electric_lock": true, "boardcomputer": 7551154042, "pedelec_battery": null, "battery_pack": null}, {"number": "33473", "bike_type": 196, "lock_types": ["frame_lock"], "active": true, "state": "ok", "electric_lock": true, "boardcomputer": 7551170255, "pedelec_battery": null, "battery_pack": null}, {"number": "325068", "bike_type": 150, "lock_types": ["frame_lock"], "active": true, "state": "ok", "electric_lock": true, "boardcomputer": 7551159017, "pedelec_battery": null, "battery_pack": null}, {"number": "325029", "bike_type": 196, "lock_types": ["frame_lock"], "active": true, "state": "ok", "electric_lock": true, "boardcomputer": 7551167618, "pedelec_battery": null, "battery_pack": null}], "bike_numbers": ["32805", "32764", "32751", "32736", "32730", "32715", "32703", "32604", "32574", "32571", "33913", "33490", "33483", "35597", "33473", "325068", "325029"], "bike_types": {"71": 6, "150": 5, "196": 6}, "place_type": "0", "rack_locks": false}, {"uid": 148616737, "lat": 48.014046, "lng": 7.84493, "bike": false, "name": "Paul-Ehrlich-Stra\u00dfe/Lokhalle", "address": null, "spot": true, "number": 36514, "booked_bikes": 0, "bikes": 0, "bikes_available_to_rent": 0, "bike_racks": 6, "free_racks": 6, "special_racks": 0, "free_special_racks": 0, "maintenance": false, "terminal_type": "free", "bike_list": [], "bike_numbers": [], "bike_types": {}, "place_type": "0", "rack_locks": false}, {"uid": 148616782, "lat": 48.014932, "lng": 7.850305, "bike": false, "name": "Zita-Kaiser-Stra\u00dfe", "address": null, "spot": true, "number": 36515, "booked_bikes": 0, "bikes": 0, "bikes_available_to_rent": 0, "bike_racks": 6, "free_racks": 5, "special_racks": 0, "free_special_racks": 0, "maintenance": false, "terminal_type": "free", "bike_list": [], "bike_numbers": [], "bike_types": {}, "place_type": "0", "rack_locks": false}, {"uid": 294139900, "lat": 48.048255, "lng": 7.784613, "bike": false, "name": "Hugstetten Bahnhof", "address": null, "spot": true, "number": 36535, "booked_bikes": 0, "bikes": 4, "bikes_available_to_rent": 4, "bike_racks": 0, "free_racks": 0, "special_racks": 0, "free_special_racks": 0, "maintenance": false, "terminal_type": "traffic_sign", "bike_list": [{"number": "32827", "bike_type": 71, "lock_types": ["frame_lock"], "active": true, "state": "ok", "electric_lock": true, "boardcomputer": 7551150497, "pedelec_battery": null, "battery_pack": null}, {"number": "33945", "bike_type": 150, "lock_types": ["frame_lock"], "active": true, "state": "ok", "electric_lock": true, "boardcomputer": 7551151764, "pedelec_battery": null, "battery_pack": null}, {"number": "35650", "bike_type": 150, "lock_types": ["frame_lock"], "active": true, "state": "ok", "electric_lock": true, "boardcomputer": 7551114726, "pedelec_battery": null, "battery_pack": null}, {"number": "35607", "bike_type": 71, "lock_types": ["frame_lock"], "active": true, "state": "ok", "electric_lock": true, "boardcomputer": 7551150943, "pedelec_battery": null, "battery_pack": null}], "bike_numbers": ["32827", "33945", "35650", "35607"], "bike_types": {"71": 2, "150": 2}, "place_type": "0", "rack_locks": false}, {"uid": 294151225, "lat": 48.034768, "lng": 7.81378, "bike": false, "name": "Blankreutestra\u00dfe", "address": null, "spot": true, "number": 36536, "booked_bikes": 0, "bikes": 9, "bikes_available_to_rent": 9, "bike_racks": 0, "free_racks": 0, "special_racks": 0, "free_special_racks": 0, "maintenance": false, "terminal_type": "traffic_sign", "bike_list": [{"number": "32984", "bike_type": 196, "lock_types": ["frame_lock"], "active": true, "state": "ok", "electric_lock": true, "boardcomputer": 7551154288, "pedelec_battery": null, "battery_pack": null}, {"number": "32734", "bike_type": 196, "lock_types": ["frame_lock"], "active": true, "state": "ok", "electric_lock": true, "boardcomputer": 7551153905, "pedelec_battery": null, "battery_pack": null}, {"number": "32559", "bike_type": 196, "lock_types": ["frame_lock"], "active": true, "state": "ok", "electric_lock": true, "boardcomputer": 7551170256, "pedelec_battery": null, "battery_pack": null}, {"number": "32517", "bike_type": 150, "lock_types": ["frame_lock"], "active": true, "state": "ok", "electric_lock": true, "boardcomputer": 7551039171, "pedelec_battery": null, "battery_pack": null}, {"number": "33931", "bike_type": 71, "lock_types": ["frame_lock"], "active": true, "state": "ok", "electric_lock": true, "boardcomputer": 7551126271, "pedelec_battery": null, "battery_pack": null}, {"number": "33499", "bike_type": 71, "lock_types": ["frame_lock"], "active": true, "state": "ok", "electric_lock": true, "boardcomputer": 7551129228, "pedelec_battery": null, "battery_pack": null}, {"number": "35657", "bike_type": 150, "lock_types": ["frame_lock"], "active": true, "state": "ok", "electric_lock": true, "boardcomputer": 7551089852, "pedelec_battery": null, "battery_pack": null}, {"number": "35631", "bike_type": 150, "lock_types": ["frame_lock"], "active": true, "state": "ok", "electric_lock": true, "boardcomputer": 7551089970, "pedelec_battery": null, "battery_pack": null}, {"number": "35602", "bike_type": 196, "lock_types": ["frame_lock"], "active": true, "state": "ok", "electric_lock": true, "boardcomputer": 7551159031, "pedelec_battery": null, "battery_pack": null}], "bike_numbers": ["32984", "32734", "32559", "32517", "33931", "33499", "35657", "35631", "35602"], "bike_types": {"71": 2, "150": 3, "196": 4}, "place_type": "0", "rack_locks": false}, {"uid": 294155665, "lat": 48.038181, "lng": 7.815428, "bike": false, "name": "Hanferstra\u00dfe", "address": null, "spot": true, "number": 36537, "booked_bikes": 0, "bikes": 4, "bikes_available_to_rent": 4, "bike_racks": 0, "free_racks": 0, "special_racks": 0, "free_special_racks": 0, "maintenance": false, "terminal_type": "traffic_sign", "bike_list": [{"number": "32778", "bike_type": 150, "lock_types": ["frame_lock"], "active": true, "state": "ok", "electric_lock": true, "boardcomputer": 7551123770, "pedelec_battery": null, "battery_pack": null}, {"number": "32652", "bike_type": 71, "lock_types": ["frame_lock"], "active": true, "state": "ok", "electric_lock": true, "boardcomputer": 7551135135, "pedelec_battery": null, "battery_pack": null}, {"number": "35574", "bike_type": 71, "lock_types": ["frame_lock"], "active": true, "state": "ok", "electric_lock": true, "boardcomputer": 7551122498, "pedelec_battery": null, "battery_pack": null}, {"number": "35562", "bike_type": 71, "lock_types": ["frame_lock"], "active": true, "state": "ok", "electric_lock": true, "boardcomputer": 7551121332, "pedelec_battery": null, "battery_pack": null}], "bike_numbers": ["32778", "32652", "35574", "35562"], "bike_types": {"71": 3, "150": 1}, "place_type": "0", "rack_locks": false}, {"uid": 294157946, "lat": 48.013291, "lng": 7.852511, "bike": false, "name": "Waldkircher Stra\u00dfe - G\u00fcBa", "address": null, "spot": true, "number": 36539, "booked_bikes": 0, "bikes": 13, "bikes_available_to_rent": 13, "bike_racks": 5, "free_racks": 0, "special_racks": 0, "free_special_racks": 0, "maintenance": false, "terminal_type": "sign", "bike_list": [{"number": "32983", "bike_type": 196, "lock_types": ["frame_lock"], "active": true, "state": "ok", "electric_lock": true, "boardcomputer": 7551168168, "pedelec_battery": null, "battery_pack": null}, {"number": "32978", "bike_type": 71, "lock_types": ["frame_lock"], "active": true, "state": "ok", "electric_lock": true, "boardcomputer": 7551132830, "pedelec_battery": null, "battery_pack": null}, {"number": "32956", "bike_type": 71, "lock_types": ["frame_lock"], "active": true, "state": "ok", "electric_lock": true, "boardcomputer": 7551132468, "pedelec_battery": null, "battery_pack": null}, {"number": "32899", "bike_type": 196, "lock_types": ["frame_lock"], "active": true, "state": "ok", "electric_lock": true, "boardcomputer": 7551153743, "pedelec_battery": null, "battery_pack": null}, {"number": "32830", "bike_type": 71, "lock_types": ["frame_lock"], "active": true, "state": "ok", "electric_lock": true, "boardcomputer": 7551170260, "pedelec_battery": null, "battery_pack": null}, {"number": "32798", "bike_type": 71, "lock_types": ["frame_lock"], "active": true, "state": "ok", "electric_lock": true, "boardcomputer": 7551126250, "pedelec_battery": null, "battery_pack": null}, {"number": "32779", "bike_type": 71, "lock_types": ["frame_lock"], "active": true, "state": "ok", "electric_lock": true, "boardcomputer": 7551127025, "pedelec_battery": null, "battery_pack": null}, {"number": "32712", "bike_type": 196, "lock_types": ["frame_lock"], "active": true, "state": "ok", "electric_lock": true, "boardcomputer": 7551153734, "pedelec_battery": null, "battery_pack": null}, {"number": "32659", "bike_type": 71, "lock_types": ["frame_lock"], "active": true, "state": "ok", "electric_lock": true, "boardcomputer": 7551130456, "pedelec_battery": null, "battery_pack": null}, {"number": "32593", "bike_type": 71, "lock_types": ["frame_lock"], "active": true, "state": "ok", "electric_lock": true, "boardcomputer": 7551168079, "pedelec_battery": null, "battery_pack": null}, {"number": "33909", "bike_type": 71, "lock_types": ["frame_lock"], "active": true, "state": "ok", "electric_lock": true, "boardcomputer": 7551132204, "pedelec_battery": null, "battery_pack": null}, {"number": "35671", "bike_type": 150, "lock_types": ["frame_lock"], "active": true, "state": "ok", "electric_lock": true, "boardcomputer": 7551089475, "pedelec_battery": null, "battery_pack": null}, {"number": "35599", "bike_type": 71, "lock_types": ["frame_lock"], "active": true, "state": "ok", "electric_lock": true, "boardcomputer": 7551121842, "pedelec_battery": null, "battery_pack": null}], "bike_numbers": ["32983", "32978", "32956", "32899", "32830", "32798", "32779", "32712", "32659", "32593", "33909", "35671", "35599"], "bike_types": {"71": 9, "150": 1, "196": 3}, "place_type": "0", "rack_locks": false}, {"uid": 364408246, "lat": 47.978076, "lng": 7.815497, "bike": true, "name": "BIKE 325042", "address": null, "spot": false, "number": 0, "booked_bikes": 0, "bikes": 1, "bikes_available_to_rent": 1, "bike_racks": 0, "free_racks": 0, "special_racks": 0, "free_special_racks": 0, "maintenance": false, "terminal_type": "", "bike_list": [{"number": "325042", "bike_type": 196, "lock_types": ["frame_lock"], "active": true, "state": "ok", "electric_lock": true, "boardcomputer": 7551168223, "pedelec_battery": null, "battery_pack": null}], "bike_numbers": ["325042"], "bike_types": {"196": 1}, "place_type": "12", "rack_locks": false}, {"uid": 364435685, "lat": 47.995182, "lng": 7.809681, "bike": true, "name": "BIKE 32727", "address": null, "spot": false, "number": 0, "booked_bikes": 0, "bikes": 1, "bikes_available_to_rent": 1, "bike_racks": 0, "free_racks": 0, "special_racks": 0, "free_special_racks": 0, "maintenance": false, "terminal_type": "", "bike_list": [{"number": "32727", "bike_type": 71, "lock_types": ["frame_lock"], "active": true, "state": "ok", "electric_lock": true, "boardcomputer": 7551138006, "pedelec_battery": null, "battery_pack": null}], "bike_numbers": ["32727"], "bike_types": {"71": 1}, "place_type": "12", "rack_locks": false}, {"uid": 364440704, "lat": 47.984578, "lng": 7.769881, "bike": true, "name": "BIKE 32826", "address": null, "spot": false, "number": 0, "booked_bikes": 0, "bikes": 1, "bikes_available_to_rent": 1, "bike_racks": 0, "free_racks": 0, "special_racks": 0, "free_special_racks": 0, "maintenance": false, "terminal_type": "", "bike_list": [{"number": "32826", "bike_type": 196, "lock_types": ["frame_lock"], "active": true, "state": "ok", "electric_lock": true, "boardcomputer": 7551151157, "pedelec_battery": null, "battery_pack": null}], "bike_numbers": ["32826"], "bike_types": {"196": 1}, "place_type": "12", "rack_locks": false}, {"uid": 364497554, "lat": 48.008267, "lng": 7.82852, "bike": true, "name": "BIKE 33477", "address": null, "spot": false, "number": 0, "booked_bikes": 0, "bikes": 1, "bikes_available_to_rent": 1, "bike_racks": 0, "free_racks": 0, "special_racks": 0, "free_special_racks": 0, "maintenance": false, "terminal_type": "", "bike_list": [{"number": "33477", "bike_type": 150, "lock_types": ["frame_lock"], "active": true, "state": "ok", "electric_lock": true, "boardcomputer": 7551154805, "pedelec_battery": null, "battery_pack": null}], "bike_numbers": ["33477"], "bike_types": {"150": 1}, "place_type": "12", "rack_locks": false}, {"uid": 364506115, "lat": 48.029751, "lng": 7.83897, "bike": true, "name": "BIKE 32552", "address": null, "spot": false, "number": 0, "booked_bikes": 0, "bikes": 1, "bikes_available_to_rent": 1, "bike_racks": 0, "free_racks": 0, "special_racks": 0, "free_special_racks": 0, "maintenance": false, "terminal_type": "", "bike_list": [{"number": "32552", "bike_type": 150, "lock_types": ["frame_lock"], "active": true, "state": "ok", "electric_lock": true, "boardcomputer": 7551138008, "pedelec_battery": null, "battery_pack": null}], "bike_numbers": ["32552"], "bike_types": {"150": 1}, "place_type": "12", "rack_locks": false}, {"uid": 364511940, "lat": 47.99516, "lng": 7.807688, "bike": true, "name": "BIKE 325052", "address": null, "spot": false, "number": 0, "booked_bikes": 0, "bikes": 1, "bikes_available_to_rent": 1, "bike_racks": 0, "free_racks": 0, "special_racks": 0, "free_special_racks": 0, "maintenance": false, "terminal_type": "", "bike_list": [{"number": "325052", "bike_type": 196, "lock_types": ["frame_lock"], "active": true, "state": "ok", "electric_lock": true, "boardcomputer": 7551154292, "pedelec_battery": null, "battery_pack": null}], "bike_numbers": ["325052"], "bike_types": {"196": 1}, "place_type": "12", "rack_locks": false}]}]}]}